COMPANY NAME,INDUSTRY,ADDRESS,CITY,STATE,ZIP,COUNTY,number,WEBSITE URL,CEO,CONTACT TITLE,NUMBER OF EMPLOYEES,EMPLOYEE SIZE,SALES,SALES RANGE,SIC CODE,SIC DESCRIPTION,NAICS CODE,LATITUDE,LONGITUDE
"Agilent Technologies, Inc. Common Stock",Professional Services,1140 Scenic Drive # 100,Modesto,CA,95350,Stanislaus,214-808-1234,athertoncpas.com,Linda Stanley,,22,,3806000,,8721,"Accounting, Auditing, and Bookkeeping Services",541211,37.648247,120.97759
Alcoa Inc. Common Stock,Warehousing & Storage,1845 South 4th St,El Centro,CA,92243,Imperial,214-808-1235,elcentrointerstate.com,Steve Gray,Owner,,4-Jan,,"$100,000 - $500,000",4225,General Warehousing and Storage,531130,32.77682,115.55223
Alcoa Inc. $3.75 Preferred Stock,Legal,688 North Arrowhead Avenue,San Bernardino,CA,92401,San Bernardino,214-808-1236,robertgrantlaw.com,Robert Grant,Owner,,4-Jan,,"$100,000 - $500,000",8111,Legal Services,541110,34.11173,117.2897
Alcoa Inc. Depository Shares Representing 1/10th Preferred Convertilble Class B Series 1,Other Business Services,1401 E. Juana,San Leandro,CA,94577,Alameda,918-354-8895,ghaspwaterdamagerestoration.com/mold-testing/ca/mold-inspection-in-san-leandro-ca/,Terrence Gentry,,,4-Jan,,Unknown,,"Business Services, NEC",,37.72969,122.13375
"AAC Holdings, Inc. Common Stock",Legal,427 Yale Avenue,Claremont,CA,91711,Los Angeles,918-354-8896,paulbrisson.com,Paul Brisson,,,4-Jan,,Unknown,,Legal Services,,34.09795,117.71788
WCM BNY Mellon Focused Growth ADR ETF,Professional Services,2834 North Naomi St,Burbank,CA,91504,Los Angeles,918-354-8897,aetlab.com,Cyrus Razmara,Executive Director,35,,5005000,,8734,Testing Laboratories,541380,34.20341,118.33993
Altisource Asset Management Corp Com,Professional Services,31977 Hilltop Boulevard # D,Running Springs,CA,92382,San Bernardino,214-808-1240,brsltd.org,Victor Cintron,CEO,,4-Jan,,Unknown,8734,Testing Laboratories,541380,34.2055,117.10594
"Aaron's, Inc. Common Stock",Advertising & Marketing,2830 F St,Eureka,CA,95501,Humboldt,214-808-1241,coxrasmussen.com,Alicia Cox,Owner,5,,1045000,,7311,Advertising Agencies,541810,40.7823,124.16364
Advance Auto Parts Inc Advance Auto Parts Inc W/I,Professional Services,5303 Betsy Ross Drive,Santa Clara,CA,95054,Santa Clara,214-808-1242,promo-line.com,Aldad Matityahu,Owner,50,,10500000,,8743,Public Relations Services,237130,37.407364,121.981933
"American Assets Trust, Inc. Common Stock",Insurance,655 University Avenue,Sacramento,CA,95825,Sacramento,214-808-1243,perryfn.com,Jeff Perry,President,10,,1960000,,6411,"Insurance Agents, Brokers, and Service",524210,38.567118,121.419366
"Almaden Minerals, Ltd. Ordinary Shares (Canada)",Other Business Services,14000 Jamboree Road,Irvine,CA,92606,Orange,682-632-5966,irvinecompany.com,,,,4-Jan,,$500.000 - $999.999,7361,Employment Agencies,561311,33.71906,117.795533
Advantage Oil & Gas Ltd  Ordinary Shares,Other Business Services,4570 Eucalyptus Avenue,Chino,CA,91710,San Bernardino,214-808-1245,rainchainsworld.com,Junelia Dicousta,,,4-Jan,,Unknown,,"Business Services, NEC",,33.98903,117.70332
Allianceberstein Holding L.P.  Units,Other Business Services,311 California St # 400,San Francisco,CA,94104,San Francisco,214-808-1246,jmoorepartners.com,James A Moore,,,4-Jan,,"$100,000 - $500,000",7389,"Business Services, NEC",522320,37.793116,122.400138
ABB Ltd Common Stock,Professional Services,3652 Viaduct Lujosa,Escondido,CA,92025,San Diego,918-354-8897,resourcetrends.com,John Ruetten,,1,,135000,,8748,"Business Consulting Services, NEC",541910,33.070376,117.047896
AbbVie Inc. Common Stock,Real Estate,330 Pythian Road,Santa Rosa,CA,95409,Sonoma,918-354-8898,torvickrealestate.com,Kathy Torvick,President,2,,268000,,6531,Real Estate Agents and Managers,531210,38.43004,122.58205
AmerisourceBergen Corporation (Holding Co) Common Stock,Legal,100 West San Fernando St # 300,San Jose,CA,95113,Santa Clara,918-354-8899,zilkakotab.com,Dominic Kotab,,2,,334000,,8111,Legal Services,541110,37.33344,121.89096
Ambev S.A. American Depositary Shares (Each representing 1 Common Share),Legal,15700 Winchester Boulevard,Los Gatos,CA,95030,Santa Clara,918-354-8900,receiversinc.com,Gregory Sterling,Owner,2,,334000,,8111,Legal Services,541110,37.240097,121.97673
Asbury Automotive Group Inc Common Stock,Other Business Services,4500 Woodman Ave. Suite A,Sherman Oaks,CA,91423,Los Angeles,918-354-8901,ziegelgroup.com,Ziegel Group,,,4-Jan,,Unknown,,"Business Services, NEC",,34.1530858,118.4308629
ABM Industries Incorporated Common Stock,Other Business Services,248 Rickenbacker Circle,Livermore,CA,94551,Alameda,214-808-1252,clarkpest.com,Dave Erichsen,,,4-Jan,,Unknown,7342,Disinfecting and Pest Control Services,561710,37.691842,121.80377
Arbor Realty Trust Common Stock,Legal,8911 Research Drive,Irvine,CA,92618,Orange,214-808-1253,shimokaji.com,Michael Shimokaji,Owner,,4-Jan,,$500.000 - $999.999,8111,Legal Services,541110,33.64267,117.73773
Arbor Realty Trust Preferred Series A,Professional Services,4270 North Blackstone Avenue # 110,Fresno,CA,93726,Fresno,214-808-1254,chcfresno.org,John Shore,Executive Director,,4-Jan,,"$1,000,000 - $2,500,000",8748,"Business Consulting Services, NEC",531390,36.795286,119.790412
Arbor Realty Trust Cumulative Redeemable Preferred Series B,Other Business Services,27700 Medical Center Road,Mission Viejo,CA,92691,Orange,214-808-1255,mission4health.com,Richard Kozak,,2000,,212000000,,7389,"Business Services, NEC",561499,33.56184,117.6673
Arbor Realty Trust Cumulative Redeemable Preferred Series C,Professional Services,13701 Riverside Drive # 604,Sherman Oaks,CA,91423,Los Angeles,214-808-1256,levineandassociates.com,Larry Levine,Owner,2,,420000,,8743,Public Relations Services,541820,34.157666,118.431299
Arbor Realty Trust 7.375% Senior Notes due 2021,Printing & Publishing,12400 High Bluff Drive # 100,San Diego,CA,92130,San Diego,214-808-1257,amnhealthcare.com,Susan Salka,CEO,1700,,705843000,,7363,Help Supply Services,561330,32.94463,117.24058
Abbott Laboratories Common Stock,Legal,3419 West Shaw Avenue,Fresno,CA,93711,Fresno,918-354-8897,gltlaw.com,Gerald Lee Tahajian,,9,,1503000,,8111,Legal Services,541110,36.80813,119.85418
Barrick Gold Corporation Common Stock,Professional Services,"1030 15th Street, Suite 100",Sacramento,CA,95814,Sacramento,214-808-1259,adt.com,Florene Barefield,,,4-Jan,,Unknown,,"Business Consulting Services, NEC",,33.75782937,117.87
American Campus Communities Inc Common Stock,Other Business Services,701 First Ave.,Sunnyvale,CA,94089,Santa Clara,682-632-5966,justmyweight.com,Craig Depew,,,4-Jan,,Unknown,,"Business Services, NEC",,37.41487,122.01817
Acco Brands Corporation Common Stock,Other Business Services,925 Blcaom Hill Road # 1525,San Jose,CA,95123,Santa Clara,214-808-1261,ethanallen.com,Richard Bloomfield,,20,,6120000,,7389,"Business Services, NEC",541410,37.25062,121.862878
Accuvest Global Opportunities ETF,Transportation & Shipping,2558 Merced Avenue,South El Monte,CA,91733,Los Angeles,214-808-1262,vulcan.com,Joe Garbiero,Owner,,4-Jan,,"$1,000,000 - $2,500,000",3592,"Carburetors, Pistons, Piston Rings, and Valves",332710,34.05889,118.05125
Ace Limited Common Stock,Other Business Services,909 North Sepulveda Boulevard,El Segundo,CA,90245,Los Angeles,214-808-1263,loanapp.com,Monica Lezama,,,4-Jan,0,"$1,000,000 - $2,500,000",7389,"Business Services, NEC",561499,33.930061,118.39625
Alliancebernstein Income Fund,Legal,400 South Hope St # 1060,Los Angeles,CA,90071,Los Angeles,214-808-1264,omm.com,Gina Marie Durham,,1500,,0,"$100,000 - $500,000",8111,Legal Services,541110,34.052214,118.253655
Aluminum Corporation of China Limited American Depositary Shares,Printing & Publishing,9840 Sixth St.,Rancho Cucamonga,CA,91730,San Bernardino,214-808-1265,safariprinting.com,Shelley Drummond,,2,,414000,,,Printing and Writing Paper,,34.0859906,117.5897076
"Arch Coal, Inc. Common Stock",Legal,Po Box 1900,Redlands,CA,92373,San Bernardino,214-808-1266,waynejohnsonlaw.com,Wayne Johnson,Owner,2,,334000,,8111,Legal Services,541110,34.03424,117.174804
SPDR MSCI ACWI IMI ETF,Legal,160 West Santa Clara St # 1050,San Jose,CA,95113,Santa Clara,512-343-4495,businessandtechnologylawgroup.com,Stephen Hollman,,6,,1002000,,8111,Legal Services,541110,37.33493,121.89304
AECOM Common Stock,Other Business Services,"1041 n ogden dr #1, West Holly",Lee Vining,CA,93541,Mono,512-343-4496,laxlegacylimo.com/,Mehdi Nadifi,,,4-Jan,,Unknown,,"Business Services, NEC",,38.0407564,119.1445949
"Access Midstream Partners, L.P. Common Units Representing Limited Partner Interests",Other Business Services,411 Lewis Rd. #190,San Jose,CA,95111,Santa Clara,682-632-5966,quantumleapdatarecovery.com/california/data-recovery-in-san-jose-ca/,Amal Monroe,,,4-Jan,,Unknown,,"Business Services, NEC",,37.29718,121.84169
Accenture plc. Class A Ordinary Shares (Ireland),Professional Services,5630 Cerritos Avenue,Cypress,CA,90630,Orange,512-343-4498,wcct.com,Kenneth Kim,,,4-Jan,,"$100,000 - $500,000",8731,Commercial Physical and Biological Research,541712,33.810093,118.034014
Avenue Income Credit Strategies Fund Common Shares,Other Business Services,3416 Lancashire Lane,Modesto,CA,95350,Stanislaus,512-343-4499,homereportcardinspections.com,Bob Holmes,President,1,,219000,,7389,"Business Services, NEC",531390,37.687053,120.985548
Ares Commercial Real Estate Corporation Common Stock,Transportation & Shipping,7131 Mirabel Road,Forestville,CA,95436,Sonoma,682-632-5966,rruwater.com,Hal Wood,Owner,9,,2322000,,3713,Truck and Bus Bodies,221310,38.47474,122.89481
Actavis plc Ordinary Shares,Other Business Services,3819 23rd St,San Francisco,CA,94114,San Francisco,512-343-4501,apieceofpeace.com,Margaret Belton,,,4-Jan,,"$100,000 - $500,000",7389,"Business Services, NEC",812199,37.753224,122.42784
Acme United Corporation. Common Stock,Legal,20750 Ventura Boulevard # 400,Woodland Hills,CA,91364,Los Angeles,512-343-4502,lmwslaw.com,Robert Sherwin,Partner,75,,12525000,,8111,Legal Services,541110,34.166501,118.585307
Accuride Corporation Common Stock,Insurance,14451 Chambers Road Ste 130,Tustin,CA,92780,Orange,682-632-5966,insuremegary.com,Gary Bernat,,,4-Jan,,Unknown,,"Insurance Agents, Brokers, and Service",,33.72198,117.80747
iShares MSCI All Country World Minimum Volatility Index Fund,Professional Services,1127 11th St # 310,Sacramento,CA,95814,Sacramento,512-343-4504,theboveecompany.com,John Bovee,Owner,8,,1680000,,8742,Management Consulting Services,541820,38.578538,121.492655
AeroCentury Corp. Common Stock,Legal,535 Anton Boulevard # 810,Costa Mesa,CA,92626,Orange,214-808-1277,lawfriend.com,Noel Torgerson,,,4-Jan,,"$100,000 - $500,000",8111,Legal Services,541110,33.69004,117.87685
Agree Realty Corporation Common Stock,Professional Services,13261 Moorpark Street Suite 201,Sherman Oaks,CA,91423,Los Angeles,214-808-1278,hadassteincpa.com,Hadas Stein,,4,,1876000,,,"Accounting, Auditing, and Bookkeeping Services",,34.1503,118.422
American DG Energy Inc. Common Stock,Advertising & Marketing,8654 Washington Boulevard,Culver City,CA,90232,Los Angeles,214-808-1279,haleymiranda.com,Jed West,Owner,10,,2090000,,7311,Advertising Agencies,541810,34.02997,118.38266
Adcare Health Systems Inc Common Stock (GA),Professional Services,,San Diego,CA,92121,San Diego,682-632-5966,wilsonarchitecture.com,Timothy Wilson,,1,,207000,,8712,Architectural Services,541310,,
"Adcare Health Systems Inc 10.875% Series A Cumulative Redeemable Preferred Stock, no par value per share (GA)",Printing & Publishing,694 South Oxford Avenue,Los Angeles,CA,90005,Los Angeles,214-808-1281,calbook.org,Mary Menzel,Other,,4-Jan,,Unknown,5192,"Books, Periodicals, and Newspapers",813319,34.06004,118.30777
Archer,Professional Services,3314 Capobella,Aliso Viejo,CA,92656,Orange,214-808-1282,yeseverestcs.com,Diane L Smith,,,4-Jan,,Unknown,8742,Management Consulting Services,999990,33.59486,117.7331
Adeptus Health Inc. Common Stock,Legal,355 South Grand Avenue # 2900,Los Angeles,CA,90071,Los Angeles,214-808-1283,reedsmith.com,Junga Kim,,200,,33400000,,8111,Legal Services,541110,34.052269,118.251988
Alliance Data Systems Corporation Common Stock,Legal,555 California St,San Francisco,CA,94104,San Francisco,214-808-1284,ltws.com,Wayne H Gilbert,,4,,668000,,8111,Legal Services,541110,37.792711,122.403216
ADT Corporation Common Stock,Insurance,2240 East Plaza Boulevard # L,National City,CA,91950,San Diego,682-632-5966,farmersagent.com/tbundalian,Teresita Bundalian,Manager,4,,784000,,6411,"Insurance Agents, Brokers, and Service",524210,32.67868,117.08183
Adams Express Company (The),Other Business Services,3325 Longview Drive,Sacramento,CA,95821,Sacramento,512-343-4501,local.terminix.com,,,,4-Jan,,Unknown,7342,Disinfecting and Pest Control Services,561710,38.643399,121.386572
DB Agriculture Short ETN DB Agriculture Short ETN,Other Business Services,755 East Nees Avenue Unit 27156,Fresno,CA,93729,,512-343-4502,levelupcareers.com,,,,4-Jan,,"$100,000 - $500,000",7361,Employment Agencies,541612,36.85206,119.77131
"Adams Resources & Energy, Inc. Common Stock",Other Business Services,601 East Holt Boulevard,Ontario,CA,91764,San Bernardino,512-343-4503,acesmogcheck.com,Smog Ontario,,3,,324000,,,"Business Services, NEC",,34.06321,117.64338
AEGON N.V. Perp. Cap. Secs. Floating Rate (Netherlands),Legal,"7700 Irvine Center Drive, Suite 955",Irvine,CA,92618,Orange,512-343-4504,habbaspilaw.com/city/orange-county/,Samer Habbas,,3,,510000,,,Legal Services,,33.659095,117.750209
Associated Estates Realty Corporation Common Stock,Legal,319 North Main St # B,Fort Bragg,CA,95437,Mendocino,682-632-5966,fortbragglaw.com,Ryan F Perkins,Partner,2,,334000,,8111,Legal Services,541110,39.44467,123.80605
AEGON N.V. Perp. Cap. Securities (Netherlands),Printing & Publishing,100 S. CITRUS SUITE 204,Covina,CA,91723,Los Angeles,512-343-4506,rochaarts.com,ROCHA ARTS,,,4-Jan,,Unknown,,Miscellaneous Publishing,,34.0858,117.89019
Ameren Corporation Common Stock,Real Estate,2175 North Calif Boulevard # 300,Walnut Creek,CA,94596,Contra Costa,682-632-5966,cbre.com,Trevor Thorpe,,,4-Jan,,Unknown,6531,Real Estate Agents and Managers,531210,37.90943,122.06541
AEGON N.V. Common Stock,Legal,"8996 Miramar Rd, Ste 220",San Diego,CA,92126,San Diego,214-808-1293,aimeemorris.com,Aimee Morris,,,4-Jan,,Unknown,,Legal Services,,32.8940773,117.13
AEGON N.V. Perp. Cap Secs.,Professional Services,1481 Ford St # 201,Redlands,CA,92373,San Bernardino,214-808-1294,caeap.com,Robert Bruner,President,7,,574000,,8748,"Business Consulting Services, NEC",624190,34.03728,117.15524
Aegon NV 8.00% Non,Professional Services,3478 Buskirk Avenue # 215,Pleasant Hill,CA,94523,Contra Costa,214-808-1237,mazeassociates.com,Tim Kirsch,,38,,3230000,,8721,"Accounting, Auditing, and Bookkeeping Services",541219,37.941519,122.05708
American Equity Investment Life Holding Company Common Stock,Professional Services,28213 Foxlane Drive,Canyon Country,CA,91351,Los Angeles,214-808-1238,svsmusicproductions.com,Scott V Smith,,,4-Jan,,"$50,000 - $100,000",8748,"Business Consulting Services, NEC",541618,34.434374,118.467037
Agnico Eagle Mines Limited Common Stock,Legal,2225 East Bayshore Road # 200,Palo Alto,CA,94303,San Mateo,214-808-1239,williamclewis.com,William Lewis,Owner,4,,668000,,8111,Legal Services,541110,37.450301,122.123097
"American Eagle Outfitters, Inc. Common Stock",Professional Services,1543 West Grand Avenue,Grover Beach,CA,93433,San Luis Obispo,918-354-8898,cashamerica.com,Dan Hutton,,,4-Jan,,$500.000 - $999.999,8742,Management Consulting Services,522320,35.12115,120.61234
"American Electric Power Company, Inc. Common Stock",Professional Services,3525 Mount Diablo Boulevard 12,Lafayette,CA,94549,Contra Costa,918-354-8899,maryfurlong.com,Mary Furlong,,,4-Jan,,"$100,000 - $500,000",8742,Management Consulting Services,541613,37.891856,122.118878
Aercap Holdings N.V. Ordinary Shares,Legal,220 Bush St # 1611,San Francisco,CA,94104,San Francisco,918-354-8900,toothattorney.com,James Davis,,7,,1169000,,8111,Legal Services,541110,37.791212,122.40091
The AES Corporation Common Stock,Insurance,6265 Greenwich Drive # 250,San Diego,CA,92122,San Diego,214-808-1244,hpis.biz,Wayne Washkowiak,Chief Executive Officer,4,,784000,,6411,"Insurance Agents, Brokers, and Service",524210,32.85446,117.18487
AES Corporation (The) Class C Preferred Stock,Professional Services,13022 Woodcock Avenue,Sylmar,CA,91342,Los Angeles,214-808-1245,arpnetworks.com,,,,4-Jan,,"$100,000 - $500,000",8712,Architectural Services,541310,34.306057,118.455571
Aetna Inc. Common Stock,Insurance,3170 Crow Canyon Place # 120,San Ramon,CA,94583,Contra Costa,214-808-1246,farmersagent.com/jcarlson2,Jason Carlson,Owner,,4-Jan,,"$100,000 - $500,000",6411,"Insurance Agents, Brokers, and Service",524210,37.777005,121.972433
Astoria Financial Corporation Common Stock,Real Estate,873 Stevens Avenue,Solana Beach,CA,92075,San Diego,214-808-1247,equityapartments.com,James Peterson,Manager,4,,792000,,6513,Operators of Apartment Buildings,531110,32.984006,117.25936
Astoria Financial Corporation Depositary Shs Repstg 1/40th Int Perp Pfd Ser C 6.5%,Professional Services,5150 Candlewood St # 9g,Lakewood,CA,90712,Los Angeles,682-632-5967,driverstuwilliams.com,Kyle Driver,,,4-Jan,,"$100,000 - $500,000",8721,"Accounting, Auditing, and Bookkeeping Services",541211,33.853518,118.133016
"American Financial Group, Inc. 5.75% Senior Notes due 2042",Professional Services,2205 Coy Avenue,Bakersfield,CA,93307,Kern,214-808-1247,krazan.com,Dean Alexander,President,6,,1056000,,8748,"Business Consulting Services, NEC",541711,35.323231,118.99972
AllianceBernstein National Municipal Income Fund Inc,Other Business Services,6746 Greenleaf Ave,Whittier,CA,90601,Los Angeles,214-808-1248,locksmith-los-alamitos.com,,,,4-Jan,,Unknown,,"Business Services, NEC",,33.9794984,118.0370973
"Allied Capital Corporation Allied Capital Corporation 6.875% Notes due April 15, 2047",Real Estate,2801 Camino Del Rio South # 301,San Diego,CA,92108,San Diego,918-354-8902,heffins.com,Shawn Heffernan,Owner,,4-Jan,,Unknown,6512,Operators of Nonresidential Buildings,523930,32.770911,117.134033
"American Financial Group, Inc. Common Stock",Legal,1280 South Victoria Avenue # 125,Ventura,CA,93003,Ventura,918-354-8903,venturadui.com,Steven Powell,Partner,3,,501000,,8111,Legal Services,541110,34.26305,119.21183
"American Financial Group, Inc. 6.25% Subordinated Debentures due 2054",Real Estate,4111 Viaduct Marina,Marina Del Rey,CA,90292,Los Angeles,918-354-8904,oakwood.com,Oakwood Kornblugh,Manager,70,,13860000,,6513,Operators of Apartment Buildings,531210,33.982518,118.461079
Market Vectors,Professional Services,1001 Bridgeway # 431,Sausalito,CA,94965,Marin,918-354-8905,unspoken.com,Steven Lee Ulrich,,2,,460000,,8742,Management Consulting Services,541611,37.858475,122.483599
AFLAC Incorporated Common Stock,Other Business Services,1860 El  Camino Real #55,Burlingame,CA,94010,San Mateo,918-354-8906,abcservicesssf.com,Claudia Giraldo,,,4-Jan,,Unknown,,"Business Services, NEC",,37.59562,122.38456
"Affiliated Managers Group, Inc. 5.250% Senior Notes due 2022",Printing & Publishing,9800 Baseline Road,Alta Loma,CA,91701,San Bernardino,214-808-1258,dmjsystems.com,DAVID JOHNS,,,4-Jan,,"$100,000 - $500,000",,"Commercial Printing, Lithographic",,34.1226991,117.5903693
"American Financial Group, Inc. 7% Senior Notes due 2050",Professional Services,1730 Highway 89,Tahoe City,CA,96145,Placer,214-808-1259,sierrasheetmetalandheating.com,Jim Casey,Owner,9,,1431000,,8748,"Business Consulting Services, NEC",541330,39.17407,120.15584
"Aflac Incorporated 5.50% Subordinated Debentures due September 15, 2052",Other Business Services,PO Box 763,Menlo Park,CA,94026,,214-808-1260,happyspacessf.com,Natalia Mulholland,,,4-Jan,,Unknown,,"Business Services, NEC",,37.47843933,122.17
"AmTrust Financial Services, Inc. Preferred Series A",Other Business Services,10861 Cherry St Ste 201,Los Alamitos,CA,90720,Orange,214-808-1261,medpromedicaltesting.com/,MedPro Testing Services,,,4-Jan,,Unknown,,"Business Services, NEC",,33.804642,118.0686006
"AmTrust Financial Services, Inc. Depository Shares Representing 1/40th Preferred Series B",Other Business Services,1288 Kifer Rd. Suite 203,Sunnyvale,CA,94086,Santa Clara,214-808-1262,aitech-usa.com,Shanny Wang,,,4-Jan,,Unknown,,"Business Services, NEC",,37.372698,121.990149
"AmTrust Financial Services, Inc. Depository Shares Representing 1/40th Preferred Series C",Other Business Services,2525 N McCall Ave,Sanger,CA,93657,Fresno,214-808-1263,woodspest.com/,Greg Cook,Owner,,4-Jan,,"$100,000 - $500,000",,Disinfecting and Pest Control Services,,36.7724509,119.611536
Apollo Senior Floating Rate Fund Inc. Common Stock,Other Business Services,40610 County Center Drive,Temecula,CA,92591,Riverside,918-354-8898,staffmark.com,,,,4-Jan,,"$100,000 - $500,000",7361,Employment Agencies,561311,33.53086,117.15914
"American Financial Group, Inc. 6 3/8% Senior Notes due 2042",Professional Services,7077 Orangewood Avenue # 112,Garden Grove,CA,92841,Orange,214-808-1260,hrnetworkinc.com,Audrianne Adams-Lee,Owner,5,,850000,,8742,Management Consulting Services,541612,33.7956,118.00969
First Majestic Silver Corp. Ordinary Shares (Canada),Legal,515 South Figueroa St # 1515,Los Angeles,CA,90071,Los Angeles,682-632-5967,hpdlegal.net,Robert Prata,Manager,5,,835000,,8111,Legal Services,541110,34.052066,118.25742
DB Agriculture Short ETN DB Agriculture Double Short ETN,Real Estate,2091 Rose St,Berkeley,CA,94709,Alameda,214-808-1267,gordoncommercial.com,John Gordon,Owner,4,,536000,,6531,Real Estate Agents and Managers,531210,37.88199,122.27029
Advent Claymore Convertible Securities and Income Fund Common Shares of Beneficial Interest,Printing & Publishing,21800 Oxnard St # 250,Woodland Hills,CA,91367,Los Angeles,214-808-1268,penton.com,Hershal Sarbin,,,4-Jan,,Unknown,2721,"Periodicals: Publishing, or Publishing and Printing",511120,,
AGCO Corporation Common Stock,Real Estate,4616 Collwood Lane,San Diego,CA,92115,San Diego,214-808-1269,propertysandiego.com,,,,4-Jan,,"$100,000 - $500,000",6512,Operators of Nonresidential Buildings,531312,32.767177,117.084867
Alpine Global Dynamic Dividend Fund Shares of Beneficial Interest,Other Business Services,333 Washington Boulevard # 360,Marina Del Rey,CA,90292,Los Angeles,214-808-1270,familyentertainment.biz,Kermit Murray,Owner,3,,1038000,,7389,"Business Services, NEC",454390,33.98121,118.46376
DB Agriculture Long ETN DB Agriculture Long ETN,Advertising & Marketing,7362 Mannix Court,San Diego,CA,92129,San Diego,214-808-1271,mynextsign.com,Ong Yang,Owner,,4-Jan,,"$100,000 - $500,000",3993,Signs and Advertising Specialties,339950,32.938831,117.163823
iShares Core U.S. Aggregate Bond ETF,Printing & Publishing,2817 West Magnolia Boulevard,Burbank,CA,91505,Los Angeles,214-808-1272,hayescoprinting.com,Dan Sumner,President,5,,715000,,2752,"Commercial Printing, Lithographic",323111,34.17069,118.33867
Alamos Gold Inc Ordinary Shares,Real Estate,921 East Hillsdale Boulevard,San Mateo,CA,94404,San Mateo,512-343-4497,waxcenter.com/ca-foster-city,,,,4-Jan,,"$1,000,000 - $2,500,000",6512,Operators of Nonresidential Buildings,531120,37.55595,122.27518
Accuvest Global Long Short ETF,Printing & Publishing,3600 American River Drive # 203,Sacramento,CA,95864,Sacramento,512-343-4498,mazzetti.com,Bill Mazzetti,,10,,2070000,,7363,Help Supply Services,561320,38.569929,121.380919
Federal Agricultural Mortgage Corporation Common Stock,Real Estate,P.O. Box 57-2465,Tarzana,CA,91357,,682-632-5967,shcommercialrealestate.com,Susan (Sue) Horowitz,,,4-Jan,,Unknown,,Real Estate Agents and Managers,,33.7917977,118.2315573
Federal Agricultural Mortgage Corporation 5.875% Non,Other Business Services,1012 South Wall Street,Los Angeles,CA,90015,Los Angeles,512-343-4500,musadirect.com,James Bae,,3,,2697000,,,"Business Services, NEC",,34.03711,118.25355
Federal Agricultural Mortgage Corporation Non Cumulative Preferred Stock Series B,Other Business Services,78 ilex drive,Newbury Park,CA,91320,Ventura,512-343-4501,ultimizer.net,Monica Vernon,,,4-Jan,,Unknown,,"Business Services, NEC",,34.179447,118.926957
Federal Agricultural Mortgage Corporation Preferred Series C Fixed to Fltg,Professional Services,4110 Palisades Road,San Diego,CA,92116,San Diego,682-632-5967,freibergs.com,Patti Cipro,Manager,,4-Jan,,$500.000 - $999.999,8741,Management Services,541618,32.774908,117.107906
Federal Agricultural Mortgage Corporation Common Stock,Other Business Services,2062 Business Center Drive #140,Irvine,CA,92612,Orange,512-343-4503,skylinerecoveryllc.com,keng kasn,,,4-Jan,,Unknown,,"Business Services, NEC",,33.67873,117.85795
"Allergan, Inc. Common Stock",Legal,104 15th St,West Sacramento,CA,95691,Yolo,512-343-4504,apfss.com,Loriann Calles,Owner,8,,3248000,,8111,Legal Services,517919,38.57121,121.5249
Assured Guaranty Ltd. Common Stock,Other Business Services,625 Broadway,San Diego,CA,92101,San Diego,682-632-5967,altaplanning.com,Sherry Ryan,Manager,,4-Jan,,$500.000 - $999.999,7389,"Business Services, NEC",541410,32.715655,117.15901
Assured Guaranty Ltd.,Other Business Services,15260 Ventura Boulevard # 1150,Sherman Oaks,CA,91403,Los Angeles,512-343-4505,spherion.com,,,,4-Jan,,"$100,000 - $500,000",7361,Employment Agencies,561311,34.153682,118.46572
Assured Guaranty Ltd.,Insurance,9616 Schlitz Road,Phelan,CA,92371,San Bernardino,214-808-1280,deliveringonthepromise.com/rdemarco,Robin DeMarco,,,4-Jan,,"$1,000,000 - $2,500,000",,Hospital and Medical Service Plans,,34.42507,117.53405
Assured Guaranty Ltd.,Other Business Services,25876 The Old Rd. #179,Stevenson Ranch,CA,91381,Los Angeles,214-808-1281,jesusarteaga.com,Jesus Arteaga,,,4-Jan,,Unknown,,"Business Services, NEC",,34.39208,118.57321
ETFS Asian Gold Trust,Media,3600 West Magnolia Boulevard,Burbank,CA,91505,Los Angeles,214-808-1282,lastudios.info,Helgar Pedrini,,,4-Jan,,"$1,000,000 - $2,500,000",7812,Motion Picture and Video Tape Production,512110,34.167992,118.346189
ProShares Ultra Silver,Professional Services,1141 Scenic Drive # 100,Modesto,CA,95350,Stanislaus,214-808-1237,athertoncpas.com,Linda Stanley,,22,,3806000,,8721,"Accounting, Auditing, and Bookkeeping Services",541211,37.648248,120.9776
Adecoagro S.A. Common Shares,Warehousing & Storage,1846 South 4th St,El Centro,CA,92243,Imperial,214-808-1238,elcentrointerstate.com,Steve Gray,Owner,,4-Jan,,"$100,000 - $500,000",4225,General Warehousing and Storage,531130,32.77683,115.55224
Agrium Inc. Common Stock,Legal,689 North Arrowhead Avenue,San Bernardino,CA,92401,San Bernardino,214-808-1239,robertgrantlaw.com,Robert Grant,Owner,,4-Jan,,"$100,000 - $500,000",8111,Legal Services,541110,34.11174,117.2898
"Argan, Inc. Common Stock",Other Business Services,1402 E. Juana,San Leandro,CA,94577,Alameda,918-354-8898,ghaspwaterdamagerestoration.com/mold-testing/ca/mold-inspection-in-san-leandro-ca/,Terrence Gentry,,,4-Jan,,Unknown,,"Business Services, NEC",,37.7297,122.13376
iShares  Agency Bond ETF,Legal,428 Yale Avenue,Claremont,CA,91711,Los Angeles,918-354-8899,paulbrisson.com,Paul Brisson,,,4-Jan,,Unknown,,Legal Services,,34.09795,117.71789
A.H. Belo Corporation Common Stock,Professional Services,2835 North Naomi St,Burbank,CA,91504,Los Angeles,918-354-8900,aetlab.com,Cyrus Razmara,Executive Director,35,,5005000,,8734,Testing Laboratories,541380,34.20341,118.33994
"Armada Hoffler Properties, Inc. Common Stock",Professional Services,31978 Hilltop Boulevard # D,Running Springs,CA,92382,San Bernardino,214-808-1244,brsltd.org,Victor Cintron,CEO,,4-Jan,,Unknown,8734,Testing Laboratories,541380,34.2055,117.10595
Aspen Insurance Holdings Limited Ordinary Shares,Advertising & Marketing,2831 F St,Eureka,CA,95501,Humboldt,214-808-1245,coxrasmussen.com,Alicia Cox,Owner,5,,1045000,,7311,Advertising Agencies,541810,40.7824,124.16365
Aspen Insurance Holdings Limited Perp Pfd Shares (Bermuda),Professional Services,5304 Betsy Ross Drive,Santa Clara,CA,95054,Santa Clara,214-808-1246,promo-line.com,Aldad Matityahu,Owner,50,,10500000,,8743,Public Relations Services,237130,37.407365,121.143201
Aspen Insurance Holdings Limited Perp Pref Shs (Bermuda),Insurance,656 University Avenue,Sacramento,CA,95825,Sacramento,214-808-1247,perryfn.com,Jeff Perry,President,10,,1960000,,6411,"Insurance Agents, Brokers, and Service",524210,38.567119,121.705768
Aspen Insurance Holdings Limited 5.95% Fixed,Other Business Services,14001 Jamboree Road,Irvine,CA,92606,Orange,682-632-5967,irvinecompany.com,,,,4-Jan,,$500.000 - $999.1000,7361,Employment Agencies,561311,33.1259,117.654869
"Ashford Hospitality Prime, Inc. Common Stock",Other Business Services,4571 Eucalyptus Avenue,Chino,CA,91710,San Bernardino,214-808-1247,rainchainsworld.com,Junelia Dicousta,,,4-Jan,,Unknown,,"Business Services, NEC",,33.152897,117.138007
AMN Healthcare Services Inc AMN Healthcare Services Inc,Other Business Services,312 California St # 400,San Francisco,CA,94104,San Francisco,214-808-1248,jmoorepartners.com,James A Moore,,,4-Jan,,"$100,000 - $500,001",7389,"Business Services, NEC",522320,37.793117,122.400139
Ashford Hospitality Trust Inc Common Stock,Professional Services,3653 Viaduct Lujosa,Escondido,CA,92025,San Diego,918-354-8902,resourcetrends.com,John Ruetten,,1,,135000,,8748,"Business Consulting Services, NEC",541910,33.070377,117.047897
Ashford Hospitality Trust Inc 8.55% Cum Preferred Series A,Real Estate,331 Pythian Road,Santa Rosa,CA,95409,Sonoma,918-354-8903,torvickrealestate.com,Kathy Torvick,President,2,,268000,,6531,Real Estate Agents and Managers,531210,38.43005,122.58206
Ashford Hospitality Trust Inc 8.45% Series D Cumulative Preferred Stock,Legal,101 West San Fernando St # 300,San Jose,CA,95113,Santa Clara,918-354-8904,zilkakotab.com,Dominic Kotab,,2,,334000,,8111,Legal Services,541110,37.44685,121.10625
Ashford Hospitality Trust Inc 9.00% Series E Cumulative Preferred Stock,Legal,15701 Winchester Boulevard,Los Gatos,CA,95030,Santa Clara,918-354-8905,receiversinc.com,Gregory Sterling,Owner,2,,334000,,8111,Legal Services,541110,37.653603,121.114827
Arlington Asset Investment Corp Class A (new),Other Business Services,4501 Woodman Ave. Suite A,Sherman Oaks,CA,91423,Los Angeles,918-354-8906,ziegelgroup.com,Ziegel Group,,,4-Jan,,Unknown,,"Business Services, NEC",,34.1530859,118.430863
iShares Asia 50 ETF,Other Business Services,249 Rickenbacker Circle,Livermore,CA,94551,Alameda,214-808-1258,clarkpest.com,Dave Erichsen,,,4-Jan,,Unknown,7342,Disinfecting and Pest Control Services,561710,37.691843,121.80378
Apollo Investment Corporation 6.625% Senior Notes due 2042,Legal,8912 Research Drive,Irvine,CA,92618,Orange,214-808-1259,shimokaji.com,Michael Shimokaji,Owner,,4-Jan,,$500.000 - $999.1000,8111,Legal Services,541110,33.64268,117.73774
Apollo Tactical Income Fund Inc. Common Stock,Professional Services,4271 North Blackstone Avenue # 110,Fresno,CA,93726,Fresno,214-808-1260,chcfresno.org,John Shore,Executive Director,,4-Jan,,"$1,000,000 - $2,500,001",8748,"Business Consulting Services, NEC",531390,36.795287,119.790413
"American International Group, Inc. New Common Stock",Other Business Services,27701 Medical Center Road,Mission Viejo,CA,92691,Orange,214-808-1261,mission4health.com,Richard Kozak,,2000,,212000000,,7389,"Business Services, NEC",561499,33.56185,117.6674
"American International Group, Inc. Warrant expiring January 19, 2021",Professional Services,13702 Riverside Drive # 604,Sherman Oaks,CA,91423,Los Angeles,214-808-1262,levineandassociates.com,Larry Levine,Owner,2,,420000,,8743,Public Relations Services,541820,34.157667,118.4313
Albany International Corporation Common Stock,Printing & Publishing,12401 High Bluff Drive # 100,San Diego,CA,92130,San Diego,214-808-1263,amnhealthcare.com,Susan Salka,CEO,1700,,705843000,,7363,Help Supply Services,561330,32.94464,117.24059
Ashford Inc. Common Stock,Legal,3420 West Shaw Avenue,Fresno,CA,93711,Fresno,918-354-8898,gltlaw.com,Gerald Lee Tahajian,,9,,1503000,,8111,Legal Services,541110,36.80814,119.85419
AAR Corp. Common Stock,Professional Services,"1031 15th Street, Suite 100",Sacramento,CA,95814,Sacramento,214-808-1260,adt.com,Florene Barefield,,,4-Jan,,Unknown,,"Business Consulting Services, NEC",,33.75782937,117.88
Air Industries Group Common Stock,Other Business Services,702 First Ave.,Sunnyvale,CA,94089,Santa Clara,682-632-5967,justmyweight.com,Craig Depew,,,4-Jan,,Unknown,,"Business Services, NEC",,37.8637,122.01818
"Applied Industrial Technologies, Inc. Common Stock",Other Business Services,926 Blcaom Hill Road # 1525,San Jose,CA,95123,Santa Clara,214-808-1267,ethanallen.com,Richard Bloomfield,,20,,6120000,,7389,"Business Services, NEC",541410,37.7788,121.862879
Apartment Investment and Management Company Common Stock,Transportation & Shipping,2559 Merced Avenue,South El Monte,CA,91733,Los Angeles,214-808-1268,vulcan.com,Joe Garbiero,Owner,,4-Jan,,"$1,000,000 - $2,500,000",3592,"Carburetors, Pistons, Piston Rings, and Valves",332710,34.0589,118.05125
Apartment Investment and Management Company Preferred Series Class A,Other Business Services,910 North Sepulveda Boulevard,El Segundo,CA,90245,Los Angeles,214-808-1269,loanapp.com,Monica Lezama,,,4-Jan,0,"$1,000,000 - $2,500,000",7389,"Business Services, NEC",561499,33.930062,118.39625
Apartment Investment and Management Company Class Z Cumulative Preferred Stock,Legal,401 South Hope St # 1060,Los Angeles,CA,90071,Los Angeles,214-808-1270,omm.com,Gina Marie Durham,,1500,,0,"$100,000 - $500,001",8111,Legal Services,541110,34.052214,118.253655
Arlington Asset Investment Corp 6.625% Notes due 2023,Printing & Publishing,9841 Sixth St.,Rancho Cucamonga,CA,91730,San Bernardino,214-808-1271,safariprinting.com,Shelley Drummond,,2,,414000,,,Printing and Writing Paper,,34.0859906,117.5547468
Apollo Investment Corporation 6.875% Senior Notes due 2043,Legal,Po Box 1901,Redlands,CA,92373,San Bernardino,214-808-1272,waynejohnsonlaw.com,Wayne Johnson,Owner,2,,334000,,8111,Legal Services,541110,34.03424,117.1126974
"Assurant, Inc. Common Stock",Legal,161 West Santa Clara St # 1050,San Jose,CA,95113,Santa Clara,512-343-4497,businessandtechnologylawgroup.com,Stephen Hollman,,6,,1002000,,8111,Legal Services,541110,37.33494,121.89305
Arthur J. Gallagher & Co. Common Stock,Other Business Services,"1042 n ogden dr #1, West Holly",Lee Vining,CA,93541,Mono,512-343-4498,laxlegacylimo.com/,Mehdi Nadifi,,,4-Jan,,Unknown,,"Business Services, NEC",,38.0407565,119.144595
Asanko Gold Inc.,Other Business Services,412 Lewis Rd. #190,San Jose,CA,95111,Santa Clara,682-632-5967,quantumleapdatarecovery.com/california/data-recovery-in-san-jose-ca/,Amal Monroe,,,4-Jan,,Unknown,,"Business Services, NEC",,37.29719,121.8417
Embotelladora Andina S.A. Common Stock,Professional Services,5631 Cerritos Avenue,Cypress,CA,90630,Orange,512-343-4500,wcct.com,Kenneth Kim,,,4-Jan,,"$100,000 - $500,000",8731,Commercial Physical and Biological Research,541712,33.810094,118.034015
Embotelladora Andina S.A. Common Stock,Other Business Services,3417 Lancashire Lane,Modesto,CA,95350,Stanislaus,512-343-4501,homereportcardinspections.com,Bob Holmes,President,1,,219000,,7389,"Business Services, NEC",531390,37.687054,120.985549
Alliance California Municipal Income Fund Inc,Transportation & Shipping,7132 Mirabel Road,Forestville,CA,95436,Sonoma,682-632-5967,rruwater.com,Hal Wood,Owner,9,,2322000,,3713,Truck and Bus Bodies,221310,38.47475,122.3913
Acadia Realty Trust Common Stock,Other Business Services,3820 23rd St,San Francisco,CA,94114,San Francisco,512-343-4503,apieceofpeace.com,Margaret Belton,,,4-Jan,,"$100,000 - $500,000",7389,"Business Services, NEC",812199,37.753225,122.5061
AK Steel Holding Corporation Common Stock,Legal,20751 Ventura Boulevard # 400,Woodland Hills,CA,91364,Los Angeles,512-343-4504,lmwslaw.com,Robert Sherwin,Partner,75,,12525000,,8111,Legal Services,541110,34.166502,118.585308
Air Lease Corporation Class A Common Stock,Insurance,14452 Chambers Road Ste 130,Tustin,CA,92780,Orange,682-632-5967,insuremegary.com,Gary Bernat,,,4-Jan,,Unknown,,"Insurance Agents, Brokers, and Service",,33.72199,117.80748
Albemarle Corporation Common Stock,Professional Services,1128 11th St # 310,Sacramento,CA,95814,Sacramento,512-343-4505,theboveecompany.com,John Bovee,Owner,8,,1680000,,8742,Management Consulting Services,541820,38.578539,121.492656
WisdomTree Asia Local Debt Fund ETF,Legal,536 Anton Boulevard # 810,Costa Mesa,CA,92626,Orange,214-808-1280,lawfriend.com,Noel Torgerson,,,4-Jan,,"$100,000 - $500,001",8111,Legal Services,541110,33.69005,117.87686
"Alon USA Partners, LP Common Units representing Limited Partner Interests",Professional Services,13262 Moorpark Street Suite 201,Sherman Oaks,CA,91423,Los Angeles,214-808-1281,hadassteincpa.com,Hadas Stein,,4,,1876000,,,"Accounting, Auditing, and Bookkeeping Services",,34.1503,118.422
"Allete, Inc.",Advertising & Marketing,8655 Washington Boulevard,Culver City,CA,90232,Los Angeles,214-808-1282,haleymiranda.com,Jed West,Owner,10,,2090000,,7311,Advertising Agencies,541810,34.02997,118.38266
"Alexander & Baldwin, Inc. Common Stock",Professional Services,,San Diego,CA,92121,San Diego,682-632-5967,wilsonarchitecture.com,Timothy Wilson,,1,,207000,,8712,Architectural Services,541310,,
AlphaClone Alternative Alpha ETF,Printing & Publishing,695 South Oxford Avenue,Los Angeles,CA,90005,Los Angeles,214-808-1285,calbook.org,Mary Menzel,Other,,4-Jan,,Unknown,5192,"Books, Periodicals, and Newspapers",813319,34.06004,118.30777
"Alamo Group, Inc. Common Stock",Professional Services,3315 Capobella,Aliso Viejo,CA,92656,Orange,214-808-1286,yeseverestcs.com,Diane L Smith,,,4-Jan,,Unknown,8742,Management Consulting Services,999990,33.59487,117.7332
"Alon USA Energy, Inc. common stick",Legal,356 South Grand Avenue # 2900,Los Angeles,CA,90071,Los Angeles,214-808-1287,reedsmith.com,Junga Kim,,200,,33400000,,8111,Legal Services,541110,34.05227,118.251989
"Alaska Air Group, Inc. Common Stock",Legal,556 California St,San Francisco,CA,94104,San Francisco,214-808-1288,ltws.com,Wayne H Gilbert,,4,,668000,,8111,Legal Services,541110,37.792712,122.403217
Allstate Corporation (The) Common Stock,Insurance,2241 East Plaza Boulevard # L,National City,CA,91950,San Diego,682-632-5967,farmersagent.com/tbundalian,Teresita Bundalian,Manager,4,,784000,,6411,"Insurance Agents, Brokers, and Service",524210,32.67869,117.08184
Allstate Corporation (The) Dep Shs Repstg 1/1000th Perp Pfd Ser A,Other Business Services,3326 Longview Drive,Sacramento,CA,95821,Sacramento,512-343-4505,local.terminix.com,,,,4-Jan,,Unknown,7342,Disinfecting and Pest Control Services,561710,38.6434,121.386573
Allstate Corporation (The) 5.100% Fixed,Other Business Services,756 East Nees Avenue Unit 27156,Fresno,CA,93729,,512-343-4506,levelupcareers.com,,,,4-Jan,,"$100,000 - $500,001",7361,Employment Agencies,541612,36.85207,119.77132
Allstate Corporation (The) Dep Shs Repstg 1/1000th Int Shs Pfd Stk Ser C,Other Business Services,602 East Holt Boulevard,Ontario,CA,91764,San Bernardino,512-343-4507,acesmogcheck.com,Smog Ontario,,3,,324000,,,"Business Services, NEC",,34.06322,117.143608
The Allstate Corporation Leopards Each Representing A 1/1000th Interest In A Share Of Fixed Rate Noncumulative Perpetual Preferred Stock Series D,Legal,"7701 Irvine Center Drive, Suite 955",Irvine,CA,92618,Orange,512-343-4508,habbaspilaw.com/city/orange-county/,Samer Habbas,,3,,510000,,,Legal Services,,33.659096,117.2121951
Allstate Corporation Depositary Shares Representing 1/1000th Perpetual Preferred Series E,Legal,320 North Main St # B,Fort Bragg,CA,95437,Mendocino,682-632-5967,fortbragglaw.com,Ryan F Perkins,Partner,2,,334000,,8111,Legal Services,541110,39.44468,123.80606
Allstate Corporation (The) Leopards Dep Shares Representing 1/1000th Perp Pfd,Printing & Publishing,101 S. CITRUS SUITE 204,Covina,CA,91723,Los Angeles,512-343-4507,rochaarts.com,ROCHA ARTS,,,4-Jan,,Unknown,,Miscellaneous Publishing,,34.0859,117.8902
Allegion plc Ordinary Shares,Real Estate,2176 North Calif Boulevard # 300,Walnut Creek,CA,94596,Contra Costa,682-632-5967,cbre.com,Trevor Thorpe,,,4-Jan,,Unknown,6531,Real Estate Agents and Managers,531210,37.90944,122.06542
Ally Financial Inc. Common Stock,Legal,"8997 Miramar Rd, Ste 220",San Diego,CA,92126,San Diego,214-808-1293,aimeemorris.com,Aimee Morris,,,4-Jan,,Unknown,,Legal Services,,32.8940773,117.31035
"GMAC Capital Trust I Fixed Rate Floating Rate Trust Preferred Securities, Series 2",Professional Services,1482 Ford St # 201,Redlands,CA,92373,San Bernardino,214-808-1294,caeap.com,Robert Bruner,President,7,,574000,,8748,"Business Consulting Services, NEC",624190,34.03729,117.46546
"Ally Financial Inc Fixed Rate Floating Rate Perpetual Preferred Stock, Series A",Professional Services,3479 Buskirk Avenue # 215,Pleasant Hill,CA,94523,Contra Costa,214-808-1237,mazeassociates.com,Tim Kirsch,,38,,3230000,,8721,"Accounting, Auditing, and Bookkeeping Services",541219,37.94152,122.05709
American Lorain Corporation Common Stock,Professional Services,28214 Foxlane Drive,Canyon Country,CA,91351,Los Angeles,214-808-1238,svsmusicproductions.com,Scott V Smith,,,4-Jan,,"$50,000 - $100,001",8748,"Business Consulting Services, NEC",541618,34.434375,118.467038
Alabama Power Company Preferred Stock,Legal,2226 East Bayshore Road # 200,Palo Alto,CA,94303,San Mateo,214-808-1239,williamclewis.com,William Lewis,Owner,4,,668000,,8111,Legal Services,541110,37.450302,122.123098
Alabama Power Company Preferred Stock,Professional Services,1544 West Grand Avenue,Grover Beach,CA,93433,San Luis Obispo,918-354-8901,cashamerica.com,Dan Hutton,,,4-Jan,,$500.000 - $999.1000,8742,Management Consulting Services,522320,35.12116,120.61235
Alabama Power Company 5.30% Cl A Pfd Stk,Professional Services,3526 Mount Diablo Boulevard 12,Lafayette,CA,94549,Contra Costa,918-354-8902,maryfurlong.com,Mary Furlong,,,4-Jan,,"$100,000 - $500,000",8742,Management Consulting Services,541613,37.690568,122.38696
Alere Inc. Common Stock,Legal,221 Bush St # 1611,San Francisco,CA,94104,San Francisco,918-354-8903,toothattorney.com,James Davis,,7,,1169000,,8111,Legal Services,541110,37.589924,122.117483
"Alere Inc. Inverness Medical Innovations, Inc. Series B Convertible Perpetual Preferred Stock",Insurance,6266 Greenwich Drive # 250,San Diego,CA,92122,San Diego,214-808-1248,hpis.biz,Wayne Washkowiak,Chief Executive Officer,4,,784000,,6411,"Insurance Agents, Brokers, and Service",524210,32.85447,117.18488
"Allison Transmission Holdings, Inc. Common Stock",Professional Services,13023 Woodcock Avenue,Sylmar,CA,91342,Los Angeles,214-808-1249,arpnetworks.com,,,,4-Jan,,"$100,000 - $500,000",8712,Architectural Services,541310,34.306058,118.455572
RBS US Large Cap Alternator Exchange Traded Note,Insurance,3171 Crow Canyon Place # 120,San Ramon,CA,94583,Contra Costa,214-808-1250,farmersagent.com/jcarlson3,Jason Carlson,Owner,,4-Jan,,"$100,000 - $500,000",6411,"Insurance Agents, Brokers, and Service",524210,37.777006,121.972434
ProShares Morningstar Alternatives Solution ETF,Real Estate,874 Stevens Avenue,Solana Beach,CA,92075,San Diego,214-808-1251,equityapartments.com,James Peterson,Manager,4,,792000,,6513,Operators of Apartment Buildings,531110,32.984007,117.25937
Alteva,Professional Services,5151 Candlewood St # 9g,Lakewood,CA,90712,Los Angeles,682-632-5968,driverstuwilliams.com,Kyle Driver,,,4-Jan,,"$100,000 - $500,000",8721,"Accounting, Auditing, and Bookkeeping Services",541211,33.853519,118.133016
Alcatel,Professional Services,2206 Coy Avenue,Bakersfield,CA,93307,Kern,214-808-1249,krazan.com,Dean Alexander,President,6,,1056000,,8748,"Business Consulting Services, NEC",541711,35.323232,118.99972
"Autoliv, Inc. Common Stock",Other Business Services,6747 Greenleaf Ave,Whittier,CA,90601,Los Angeles,214-808-1250,locksmith-los-alamitos.com,,,,4-Jan,,Unknown,,"Business Services, NEC",,33.9794985,118.0370973
"Alexander's, Inc. Common Stock",Real Estate,2802 Camino Del Rio South # 301,San Diego,CA,92108,San Diego,918-354-8907,heffins.com,Shawn Heffernan,Owner,,4-Jan,,Unknown,6512,Operators of Nonresidential Buildings,523930,32.770912,117.134034
Antero Midstream Partners LP Common Units representing limited partner interests,Legal,1281 South Victoria Avenue # 125,Ventura,CA,93003,Ventura,918-354-8908,venturadui.com,Steven Powell,Partner,3,,501000,,8111,Legal Services,541110,34.26306,119.21184
"Amber Road, Inc. Common Stock",Real Estate,4112 Viaduct Marina,Marina Del Rey,CA,90292,Los Angeles,918-354-8909,oakwood.com,Oakwood Kornblugh,Manager,70,,13860000,,6513,Operators of Apartment Buildings,531210,33.982519,118.46108
"AMC Entertainment Holdings, Inc. Class A Common Stock",Professional Services,1002 Bridgeway # 431,Sausalito,CA,94965,Marin,918-354-8910,unspoken.com,Steven Lee Ulrich,,2,,460000,,8742,Management Consulting Services,541611,37.739351,122.406687
"Armco Metals Holdings, Inc. Common Stock",Other Business Services,1861 El  Camino Real #55,Burlingame,CA,94010,San Mateo,918-354-8911,abcservicesssf.com,Claudia Giraldo,,,4-Jan,,Unknown,,"Business Services, NEC",,37.1538264,122.85183
"AMETEK, Inc.",Printing & Publishing,9801 Baseline Road,Alta Loma,CA,91701,San Bernardino,214-808-1264,dmjsystems.com,DAVID JOHNS,,,4-Jan,,"$100,000 - $500,001",,"Commercial Printing, Lithographic",,34.1226992,117.5903694
AMEC Foster Wheeler plc American Depositary Shares,Professional Services,1731 Highway 89,Tahoe City,CA,96145,Placer,214-808-1265,sierrasheetmetalandheating.com,Jim Casey,Owner,9,,1431000,,8748,"Business Consulting Services, NEC",541330,39.17408,120.15585
"Affiliated Managers Group, Inc. Common Stock",Other Business Services,PO Box 764,Menlo Park,CA,94026,,214-808-1266,happyspacessf.com,Natalia Mulholland,,,4-Jan,,Unknown,,"Business Services, NEC",,37.47843933,122.18
American Homes 4 Rent Common Shares of Beneficial Interest,Other Business Services,10862 Cherry St Ste 201,Los Alamitos,CA,90720,Orange,214-808-1267,medpromedicaltesting.com/,MedPro Testing Services,,,4-Jan,,Unknown,,"Business Services, NEC",,33.804643,118.0686007
American Homes 4 Rent Participating Preferred Shares Series A,Other Business Services,1289 Kifer Rd. Suite 203,Sunnyvale,CA,94086,Santa Clara,214-808-1268,aitech-usa.com,Shanny Wang,,,4-Jan,,Unknown,,"Business Services, NEC",,37.372699,121.99015
American Homes 4 Rent 5% Series B Participating Preferred Shares of Beneficial Interest,Other Business Services,2526 N McCall Ave,Sanger,CA,93657,Fresno,214-808-1269,woodspest.com/,Greg Cook,Owner,,4-Jan,,"$100,000 - $500,000",,Disinfecting and Pest Control Services,,36.772451,119.611537
American Homes 4 Rent Participating Pfd Ser C,Other Business Services,40611 County Center Drive,Temecula,CA,92591,Riverside,918-354-8899,staffmark.com,,,,4-Jan,,"$100,000 - $500,000",7361,Employment Agencies,561311,33.37174,117.15915
"American Midstream Partners, LP Common Units representing Limited Partner Interests",Professional Services,7078 Orangewood Avenue # 112,Garden Grove,CA,92841,Orange,214-808-1261,hrnetworkinc.com,Audrianne Adams-Lee,Owner,5,,850000,,8742,Management Consulting Services,541612,33.82304,118.50515
JPMorgan Chase Capital XVI JP Morgan Alerian MLP ETN,Legal,516 South Figueroa St # 1515,Los Angeles,CA,90071,Los Angeles,682-632-5968,hpdlegal.net,Robert Prata,Manager,5,,835000,,8111,Legal Services,541110,34.052067,118.75288
Alerian MLP ETF,Real Estate,2092 Rose St,Berkeley,CA,94709,Alameda,214-808-1273,gordoncommercial.com,John Gordon,Owner,4,,536000,,6531,Real Estate Agents and Managers,531210,37.882,122.2703
"Ameriprise Financial, Inc. Common Stock",Printing & Publishing,21801 Oxnard St # 250,Woodland Hills,CA,91367,Los Angeles,214-808-1274,penton.com,Hershal Sarbin,,,4-Jan,,Unknown,2721,"Periodicals: Publishing, or Publishing and Printing",511120,,
"Ampio Pharmaceuticals, Inc.",Real Estate,4617 Collwood Lane,San Diego,CA,92115,San Diego,214-808-1275,propertysandiego.com,,,,4-Jan,,"$100,000 - $500,000",6512,Operators of Nonresidential Buildings,531312,32.767178,117.084868
iShares Utilities Bond ETF,Other Business Services,334 Washington Boulevard # 360,Marina Del Rey,CA,90292,Los Angeles,214-808-1276,familyentertainment.biz,Kermit Murray,Owner,3,,1038000,,7389,"Business Services, NEC",454390,33.98122,118.46377
"Ameresco, Inc. Class A Common Stock",Advertising & Marketing,7363 Mannix Court,San Diego,CA,92129,San Diego,214-808-1277,mynextsign.com,Ong Yang,Owner,,4-Jan,,"$100,000 - $500,000",3993,Signs and Advertising Specialties,339950,32.938832,117.163824
"AmREIT, Inc. Common stock",Printing & Publishing,2818 West Magnolia Boulevard,Burbank,CA,91505,Los Angeles,214-808-1278,hayescoprinting.com,Dan Sumner,President,5,,715000,,2752,"Commercial Printing, Lithographic",323111,34.1707,118.33868
American Shared Hospital Services Common Stock,Real Estate,922 East Hillsdale Boulevard,San Mateo,CA,94404,San Mateo,512-343-4499,waxcenter.com/ca-foster-city,,,,4-Jan,,"$1,000,000 - $2,500,001",6512,Operators of Nonresidential Buildings,531120,37.55596,122.27519
American Tower Corporation (REIT) Common Stock,Printing & Publishing,3601 American River Drive # 203,Sacramento,CA,95864,Sacramento,512-343-4500,mazzetti.com,Bill Mazzetti,,10,,2070000,,7363,Help Supply Services,561320,38.56993,121.38092
American Tower Corporation (REIT) Pfd Conv Ser A,Real Estate,P.O. Box 57-2466,Tarzana,CA,91357,,682-632-5968,shcommercialrealestate.com,Susan (Sue) Horowitz,,,4-Jan,,Unknown,,Real Estate Agents and Managers,,33.7917978,118.2315573
TD Ameritrade Holding Corporation Common Stock,Other Business Services,1013 South Wall Street,Los Angeles,CA,90015,Los Angeles,512-343-4502,musadirect.com,James Bae,,3,,2697000,,,"Business Services, NEC",,34.355183,118.25355
"Apollo Residential Mortgage, Inc. Common Stock",Other Business Services,79 ilex drive,Newbury Park,CA,91320,Ventura,512-343-4503,ultimizer.net,Monica Vernon,,,4-Jan,,Unknown,,"Business Services, NEC",,34.530919,118.926957
"Apollo Residential Mortgage, Inc. Pfd Shs Series A  (US)",Professional Services,4111 Palisades Road,San Diego,CA,92116,San Diego,682-632-5968,freibergs.com,Patti Cipro,Manager,,4-Jan,,$500.000 - $999.1000,8741,Management Services,541618,32.774909,117.63684
ETRACS Alerian MLP Index ETN,Other Business Services,2063 Business Center Drive #140,Irvine,CA,92612,Orange,512-343-4505,skylinerecoveryllc.com,keng kasn,,,4-Jan,,Unknown,,"Business Services, NEC",,33.67874,117.41573
"America Movil, S.A.B. de C.V. American Depository Receipt Series L",Legal,105 15th St,West Sacramento,CA,95691,Yolo,512-343-4506,apfss.com,Loriann Calles,Owner,8,,3248000,,8111,Legal Services,517919,38.57122,121.525
InfraCap MLP ETF,Other Business Services,626 Broadway,San Diego,CA,92101,San Diego,682-632-5968,altaplanning.com,Sherry Ryan,Manager,,4-Jan,,$500.000 - $999.1000,7389,"Business Services, NEC",541410,32.715656,117.15902
American Eagle Energy Corporation.  Common Stock,Other Business Services,15261 Ventura Boulevard # 1150,Sherman Oaks,CA,91403,Los Angeles,512-343-4506,spherion.com,,,,4-Jan,,"$100,000 - $500,001",7361,Employment Agencies,561311,34.153682,118.46573
"AutoNation, Inc. Common Stock",Insurance,9617 Schlitz Road,Phelan,CA,92371,San Bernardino,214-808-1283,deliveringonthepromise.com/rdemarco,Robin DeMarco,,,4-Jan,,"$1,000,000 - $2,500,001",,Hospital and Medical Service Plans,,34.42507,117.53406
Global X FTSE Andean 40 ETF,Other Business Services,25877 The Old Rd. #179,Stevenson Ranch,CA,91381,Los Angeles,214-808-1284,jesusarteaga.com,Jesus Arteaga,,,4-Jan,,Unknown,,"Business Services, NEC",,34.39208,118.635057
"Arista Networks, Inc. Common Stock",Media,3601 West Magnolia Boulevard,Burbank,CA,91505,Los Angeles,214-808-1285,lastudios.info,Helgar Pedrini,,,4-Jan,,"$1,000,000 - $2,500,001",7812,Motion Picture and Video Tape Production,512110,34.167992,118.923925
Abercrombie & Fitch Company Common Stock,Professional Services,1142 Scenic Drive # 100,Modesto,CA,95350,Stanislaus,214-808-1240,athertoncpas.com,Linda Stanley,,22,,3806000,,8721,"Accounting, Auditing, and Bookkeeping Services",541211,37.648249,120.97761
Amira Nature Foods Ltd Ordinary Shares,Warehousing & Storage,1847 South 4th St,El Centro,CA,92243,Imperial,214-808-1241,elcentrointerstate.com,Steve Gray,Owner,,4-Jan,,"$100,000 - $500,000",4225,General Warehousing and Storage,531130,32.77684,115.55225
Market Vectors Fallen Angel High Yield Bond,Legal,690 North Arrowhead Avenue,San Bernardino,CA,92401,San Bernardino,214-808-1242,robertgrantlaw.com,Robert Grant,Owner,,4-Jan,,"$100,000 - $500,000",8111,Legal Services,541110,34.11175,117.2899
Anworth Mortgage Asset Corporation Common Stock,Other Business Services,1403 E. Juana,San Leandro,CA,94577,Alameda,918-354-8901,ghaspwaterdamagerestoration.com/mold-testing/ca/mold-inspection-in-san-leandro-ca/,Terrence Gentry,,,4-Jan,,Unknown,,"Business Services, NEC",,37.72971,122.13377
Anworth Mortgage Asset Corporation Series A Preferred Stock,Legal,429 Yale Avenue,Claremont,CA,91711,Los Angeles,918-354-8902,paulbrisson.com,Paul Brisson,,,4-Jan,,Unknown,,Legal Services,,34.09795,117.7179
Anworth Mortgage Asset  Corporation Preferred Stock Series B 6.25%,Professional Services,2836 North Naomi St,Burbank,CA,91504,Los Angeles,918-354-8903,aetlab.com,Cyrus Razmara,Executive Director,35,,5005000,,8734,Testing Laboratories,541380,34.20341,118.33995
ANN INC. Common Stock,Professional Services,31979 Hilltop Boulevard # D,Running Springs,CA,92382,San Bernardino,214-808-1248,brsltd.org,Victor Cintron,CEO,,4-Jan,,Unknown,8734,Testing Laboratories,541380,34.2055,117.10596
"Alpha Natural Resources, inc. comm stock",Advertising & Marketing,2832 F St,Eureka,CA,95501,Humboldt,214-808-1249,coxrasmussen.com,Alicia Cox,Owner,5,,1045000,,7311,Advertising Agencies,541810,40.7825,124.16366
"Anthem, Inc. Common Stock",Professional Services,5305 Betsy Ross Drive,Santa Clara,CA,95054,Santa Clara,214-808-1250,promo-line.com,Aldad Matityahu,Owner,50,,10500000,,8743,Public Relations Services,237130,37.407366,121.1268335
Allied Nevada Gold Corp.,Insurance,657 University Avenue,Sacramento,CA,95825,Sacramento,214-808-1251,perryfn.com,Jeff Perry,President,10,,1960000,,6411,"Insurance Agents, Brokers, and Service",524210,38.56712,121.1830902
Aegean Marine Petroleum Network Inc. Common Stock,Other Business Services,14002 Jamboree Road,Irvine,CA,92606,Orange,682-632-5968,irvinecompany.com,,,,4-Jan,,$500.000 - $999.1001,7361,Employment Agencies,561311,33.179894,117.2105271
iShares Aggressive Allocation ETF,Other Business Services,4572 Eucalyptus Avenue,Chino,CA,91710,San Bernardino,214-808-1249,rainchainsworld.com,Junelia Dicousta,,,4-Jan,,Unknown,,"Business Services, NEC",,33.206891,117.2830472
Alpine Total Dynamic Dividend Fund Common Stock,Other Business Services,313 California St # 400,San Francisco,CA,94104,San Francisco,214-808-1250,jmoorepartners.com,James A Moore,,,4-Jan,,"$100,000 - $500,002",7389,"Business Services, NEC",522320,37.793118,122.40014
"Alliance One International, Inc. Common Stock",Professional Services,3654 Viaduct Lujosa,Escondido,CA,92025,San Diego,918-354-8907,resourcetrends.com,John Ruetten,,1,,135000,,8748,"Business Consulting Services, NEC",541910,33.070378,117.047898
iShares Conservative Allocation ETF,Real Estate,332 Pythian Road,Santa Rosa,CA,95409,Sonoma,918-354-8908,torvickrealestate.com,Kathy Torvick,President,2,,268000,,6531,Real Estate Agents and Managers,531210,38.43006,122.58207
AOL Inc. AOL Inc. Common Stock,Legal,102 West San Fernando St # 300,San Jose,CA,95113,Santa Clara,918-354-8909,zilkakotab.com,Dominic Kotab,,2,,334000,,8111,Legal Services,541110,37.860356,121.123404
iShares Moderate Allocation ETF,Legal,15702 Winchester Boulevard,Los Gatos,CA,95030,Santa Clara,918-354-8910,receiversinc.com,Gregory Sterling,Owner,2,,334000,,8111,Legal Services,541110,37.1067109,121.131981
Aon plc Class A Ordinary Shares (UK),Other Business Services,4502 Woodman Ave. Suite A,Sherman Oaks,CA,91423,Los Angeles,918-354-8911,ziegelgroup.com,Ziegel Group,,,4-Jan,,Unknown,,"Business Services, NEC",,34.153086,118.4308631
iShares Growth Allocation ETF,Other Business Services,250 Rickenbacker Circle,Livermore,CA,94551,Alameda,214-808-1264,clarkpest.com,Dave Erichsen,,,4-Jan,,Unknown,7342,Disinfecting and Pest Control Services,561710,37.691844,121.80379
A.O. Smith Corporation Common Stock,Legal,8913 Research Drive,Irvine,CA,92618,Orange,214-808-1265,shimokaji.com,Michael Shimokaji,Owner,,4-Jan,,$500.000 - $999.1001,8111,Legal Services,541110,33.64269,117.73775
Ampco,Professional Services,4272 North Blackstone Avenue # 110,Fresno,CA,93726,Fresno,214-808-1266,chcfresno.org,John Shore,Executive Director,,4-Jan,,"$1,000,000 - $2,500,002",8748,"Business Consulting Services, NEC",531390,36.795288,119.790414
Apache Corporation Common Stock,Other Business Services,27702 Medical Center Road,Mission Viejo,CA,92691,Orange,214-808-1267,mission4health.com,Richard Kozak,,2000,,212000000,,7389,"Business Services, NEC",561499,33.56186,117.6675
Artisan Partners Asset Management Inc. Class A Common Stock,Professional Services,13703 Riverside Drive # 604,Sherman Oaks,CA,91423,Los Angeles,214-808-1268,levineandassociates.com,Larry Levine,Owner,2,,420000,,8743,Public Relations Services,541820,34.157668,118.431301
"Asia Pacific Fund, Inc. (The)",Printing & Publishing,12402 High Bluff Drive # 100,San Diego,CA,92130,San Diego,214-808-1269,amnhealthcare.com,Susan Salka,CEO,1700,,705843000,,7363,Help Supply Services,561330,32.94465,117.2406
Anadarko Petroleum Corporation Common Stock,Legal,3421 West Shaw Avenue,Fresno,CA,93711,Fresno,918-354-8899,gltlaw.com,Gerald Lee Tahajian,,9,,1503000,,8111,Legal Services,541110,36.80815,119.8542
"Air Products and Chemicals, Inc. Common Stock",Professional Services,"1032 15th Street, Suite 100",Sacramento,CA,95814,Sacramento,214-808-1261,adt.com,Florene Barefield,,,4-Jan,,Unknown,,"Business Consulting Services, NEC",,33.75782937,117.89
Morgan Stanley Asia,Other Business Services,703 First Ave.,Sunnyvale,CA,94089,Santa Clara,682-632-5968,justmyweight.com,Craig Depew,,,4-Jan,,Unknown,,"Business Services, NEC",,37.24213,122.01819
Amphenol Corporation Common Stock,Other Business Services,927 Blcaom Hill Road # 1525,San Jose,CA,95123,Santa Clara,214-808-1273,ethanallen.com,Richard Bloomfield,,20,,6120000,,7389,"Business Services, NEC",541410,37.40638,121.86288
"Advanced Photonix, Inc. Class A Common Stock",Transportation & Shipping,2560 Merced Avenue,South El Monte,CA,91733,Los Angeles,214-808-1274,vulcan.com,Joe Garbiero,Owner,,4-Jan,,"$1,000,000 - $2,500,000",3592,"Carburetors, Pistons, Piston Rings, and Valves",332710,34.05891,118.05125
"Atlas Pipeline Partners, L.P. Common Units, No Par Value",Other Business Services,911 North Sepulveda Boulevard,El Segundo,CA,90245,Los Angeles,214-808-1275,loanapp.com,Monica Lezama,,,4-Jan,0,"$1,000,000 - $2,500,000",7389,"Business Services, NEC",561499,33.930063,118.39625
"Atlas Pipeline Partners, L.P. Cumulative Redeemable Perpetual Preferred Units Class E",Legal,402 South Hope St # 1060,Los Angeles,CA,90071,Los Angeles,214-808-1276,omm.com,Gina Marie Durham,,1500,,0,"$100,000 - $500,002",8111,Legal Services,541110,34.052214,118.253655
"Apollo Global Management, LLC Class A Common Shares Representing Class A Limitied Liability Company Interests",Printing & Publishing,9842 Sixth St.,Rancho Cucamonga,CA,91730,San Bernardino,214-808-1277,safariprinting.com,Shelley Drummond,,2,,414000,,,Printing and Writing Paper,,34.0859906,117.1699201
American Apparel Inc Common Stock,Legal,Po Box 1902,Redlands,CA,92373,San Bernardino,214-808-1278,waynejohnsonlaw.com,Wayne Johnson,Owner,2,,334000,,8111,Legal Services,541110,34.03424,117.2271428
"Alpha Pro Tech, Ltd. Common Stock",Legal,162 West Santa Clara St # 1050,San Jose,CA,95113,Santa Clara,512-343-4499,businessandtechnologylawgroup.com,Stephen Hollman,,6,,1002000,,8111,Legal Services,541110,37.33495,121.89306
"Preferred Apartment Communities, Inc. Common Stock",Other Business Services,"1043 n ogden dr #1, West Holly",Lee Vining,CA,93541,Mono,512-343-4500,laxlegacylimo.com/,Mehdi Nadifi,,,4-Jan,,Unknown,,"Business Services, NEC",,38.0407566,119.1445951
"AmeriGas Partners, L.P. Common Stock",Other Business Services,413 Lewis Rd. #190,San Jose,CA,95111,Santa Clara,682-632-5968,quantumleapdatarecovery.com/california/data-recovery-in-san-jose-ca/,Amal Monroe,,,4-Jan,,Unknown,,"Business Services, NEC",,37.2972,121.84171
"American Spectrum Realty, Inc. Common Stock",Professional Services,5632 Cerritos Avenue,Cypress,CA,90630,Orange,512-343-4502,wcct.com,Kenneth Kim,,,4-Jan,,"$100,000 - $500,000",8731,Commercial Physical and Biological Research,541712,33.810095,118.034016
Antero Resources Corporation Common Stock,Other Business Services,3418 Lancashire Lane,Modesto,CA,95350,Stanislaus,512-343-4503,homereportcardinspections.com,Bob Holmes,President,1,,219000,,7389,"Business Services, NEC",531390,37.687055,120.98555
"ARC Document Solutions, Inc. Common Stock",Transportation & Shipping,7133 Mirabel Road,Forestville,CA,95436,Sonoma,682-632-5968,rruwater.com,Hal Wood,Owner,9,,2322000,,3713,Truck and Bus Bodies,221310,38.47476,122.97307
Arcos Dorados Holdings Inc. Class A Shares,Other Business Services,3821 23rd St,San Francisco,CA,94114,San Francisco,512-343-4505,apieceofpeace.com,Margaret Belton,,,4-Jan,,"$100,000 - $500,000",7389,"Business Services, NEC",812199,37.753226,122.144004
Arc Logistic Partners LP Common Units representing limited partner interest,Legal,20752 Ventura Boulevard # 400,Woodland Hills,CA,91364,Los Angeles,512-343-4506,lmwslaw.com,Robert Sherwin,Partner,75,,12525000,,8111,Legal Services,541110,34.166503,118.585309
"Ares Dynamic Credit Allocation Fund, Inc. Common Shares",Insurance,14453 Chambers Road Ste 130,Tustin,CA,92780,Orange,682-632-5968,insuremegary.com,Gary Bernat,,,4-Jan,,Unknown,,"Insurance Agents, Brokers, and Service",,33.722,117.80749
"Alexandria Real Estate Equities, Inc. Common Stock",Professional Services,1129 11th St # 310,Sacramento,CA,95814,Sacramento,512-343-4506,theboveecompany.com,John Bovee,Owner,8,,1680000,,8742,Management Consulting Services,541820,38.57854,121.492657
"Alexandria Real Estate Equities, Inc. Pfd Ser E",Legal,537 Anton Boulevard # 810,Costa Mesa,CA,92626,Orange,214-808-1283,lawfriend.com,Noel Torgerson,,,4-Jan,,"$100,000 - $500,002",8111,Legal Services,541110,33.69006,117.87687
Ares Management L.P. Common Units representing Limited Partner Interests,Professional Services,13263 Moorpark Street Suite 201,Sherman Oaks,CA,91423,Los Angeles,214-808-1284,hadassteincpa.com,Hadas Stein,,4,,1876000,,,"Accounting, Auditing, and Bookkeeping Services",,34.1503,118.422
"Airgas, Inc. Common Stock",Advertising & Marketing,8656 Washington Boulevard,Culver City,CA,90232,Los Angeles,214-808-1285,haleymiranda.com,Jed West,Owner,10,,2090000,,7311,Advertising Agencies,541810,34.02997,118.38266
Global X MSCI Argentina ETF,Professional Services,,San Diego,CA,92121,San Diego,682-632-5968,wilsonarchitecture.com,Timothy Wilson,,1,,207000,,8712,Architectural Services,541310,,
Arch Capital Group Ltd. 6.75% PFD sh S C,Printing & Publishing,696 South Oxford Avenue,Los Angeles,CA,90005,Los Angeles,214-808-1289,calbook.org,Mary Menzel,Other,,4-Jan,,Unknown,5192,"Books, Periodicals, and Newspapers",813319,34.06004,118.30777
"Apollo Commercial Real Estate Finance, Inc",Professional Services,3316 Capobella,Aliso Viejo,CA,92656,Orange,214-808-1290,yeseverestcs.com,Diane L Smith,,,4-Jan,,Unknown,8742,Management Consulting Services,999990,33.59488,117.7333
Apollo Commercial Real Estate Finance Cumulative Redeemable Perpetual Preferred Stock Series A,Legal,357 South Grand Avenue # 2900,Los Angeles,CA,90071,Los Angeles,214-808-1291,reedsmith.com,Junga Kim,,200,,33400000,,8111,Legal Services,541110,34.052271,118.25199
ARK Genomic Revolution Multi,Legal,557 California St,San Francisco,CA,94104,San Francisco,214-808-1292,ltws.com,Wayne H Gilbert,,4,,668000,,8111,Legal Services,541110,37.792713,122.403218
ARK Innovation ETF,Insurance,2242 East Plaza Boulevard # L,National City,CA,91950,San Diego,682-632-5968,farmersagent.com/tbundalian,Teresita Bundalian,Manager,4,,784000,,6411,"Insurance Agents, Brokers, and Service",524210,32.6787,117.08185
ARK Industrial Innovation ETF,Other Business Services,3327 Longview Drive,Sacramento,CA,95821,Sacramento,512-343-4509,local.terminix.com,,,,4-Jan,,Unknown,7342,Disinfecting and Pest Control Services,561710,38.643401,121.386574
ARK Web x.0 ETF,Other Business Services,757 East Nees Avenue Unit 27156,Fresno,CA,93729,,512-343-4510,levelupcareers.com,,,,4-Jan,,"$100,000 - $500,002",7361,Employment Agencies,541612,36.85208,119.77133
"American Realty Investors, Inc. Common Stock",Other Business Services,603 East Holt Boulevard,Ontario,CA,91764,San Bernardino,512-343-4511,acesmogcheck.com,Smog Ontario,,3,,324000,,,"Business Services, NEC",,34.06323,117.2807822
Ares Multi,Legal,"7702 Irvine Center Drive, Suite 955",Irvine,CA,92618,Orange,512-343-4512,habbaspilaw.com/city/orange-county/,Samer Habbas,,3,,510000,,,Legal Services,,33.659097,117.3493693
Aramark Common Stock,Legal,321 North Main St # B,Fort Bragg,CA,95437,Mendocino,682-632-5968,fortbragglaw.com,Ryan F Perkins,Partner,2,,334000,,8111,Legal Services,541110,39.44469,123.80607
Ares Capital Corporation 7.00% Senior Notes due 2022,Printing & Publishing,102 S. CITRUS SUITE 204,Covina,CA,91723,Los Angeles,512-343-4508,rochaarts.com,ROCHA ARTS,,,4-Jan,,Unknown,,Miscellaneous Publishing,,34.086,117.89021
Aeropostale Inc Common Stock,Real Estate,2177 North Calif Boulevard # 300,Walnut Creek,CA,94596,Contra Costa,682-632-5968,cbre.com,Trevor Thorpe,,,4-Jan,,Unknown,6531,Real Estate Agents and Managers,531210,37.90945,122.06543
"Atlas Resource Partners, L.P. Common Units representing Limited Partner Interests",Legal,"8998 Miramar Rd, Ste 220",San Diego,CA,92126,San Diego,214-808-1293,aimeemorris.com,Aimee Morris,,,4-Jan,,Unknown,,Legal Services,,32.8940773,117.62057
"Atlas Resource Partners, L.P. CUM RED PERP PDF UNIT CL D %",Professional Services,1483 Ford St # 201,Redlands,CA,92373,San Bernardino,214-808-1294,caeap.com,Robert Bruner,President,7,,574000,,8748,"Business Consulting Services, NEC",624190,34.0373,117.77568
"American Residential Properties, Inc. Common Stock",Professional Services,3480 Buskirk Avenue # 215,Pleasant Hill,CA,94523,Contra Costa,214-808-1237,mazeassociates.com,Tim Kirsch,,38,,3230000,,8721,"Accounting, Auditing, and Bookkeeping Services",541219,37.941521,122.0571
"ARMOUR Residential REIT, Inc.",Professional Services,28215 Foxlane Drive,Canyon Country,CA,91351,Los Angeles,214-808-1238,svsmusicproductions.com,Scott V Smith,,,4-Jan,,"$50,000 - $100,002",8748,"Business Consulting Services, NEC",541618,34.434376,118.467039
Armour Residential REIT INC Preferred Series A,Legal,2227 East Bayshore Road # 200,Palo Alto,CA,94303,San Mateo,214-808-1239,williamclewis.com,William Lewis,Owner,4,,668000,,8111,Legal Services,541110,37.450303,122.123099
"ARMOUR Residential REIT, Inc. Preferred Series B",Professional Services,1545 West Grand Avenue,Grover Beach,CA,93433,San Luis Obispo,918-354-8904,cashamerica.com,Dan Hutton,,,4-Jan,,$500.000 - $999.1001,8742,Management Consulting Services,522320,35.12117,120.61236
Ares Capital Corporation 5.875% Senior Notes due 2022,Professional Services,3527 Mount Diablo Boulevard 12,Lafayette,CA,94549,Contra Costa,918-354-8905,maryfurlong.com,Mary Furlong,,,4-Jan,,"$100,000 - $500,000",8742,Management Consulting Services,541613,37.48928,122.19627
"Arrow Electronics, Inc. Common Stock",Legal,222 Bush St # 1611,San Francisco,CA,94104,San Francisco,918-354-8906,toothattorney.com,James Davis,,7,,1169000,,8111,Legal Services,541110,37.388636,122.275057
Ares Capital Corporation 7.75% Senior Notes due 2040,Insurance,6267 Greenwich Drive # 250,San Diego,CA,92122,San Diego,214-808-1252,hpis.biz,Wayne Washkowiak,Chief Executive Officer,4,,784000,,6411,"Insurance Agents, Brokers, and Service",524210,32.85448,117.18489
ASA  Gold and Precious Metals Limited,Professional Services,13024 Woodcock Avenue,Sylmar,CA,91342,Los Angeles,214-808-1253,arpnetworks.com,,,,4-Jan,,"$100,000 - $500,000",8712,Architectural Services,541310,34.306059,118.455573
Associated Banc,Insurance,3172 Crow Canyon Place # 120,San Ramon,CA,94583,Contra Costa,214-808-1254,farmersagent.com/jcarlson4,Jason Carlson,Owner,,4-Jan,,"$100,000 - $500,000",6411,"Insurance Agents, Brokers, and Service",524210,37.777007,121.972435
Associated Banc,Real Estate,875 Stevens Avenue,Solana Beach,CA,92075,San Diego,214-808-1255,equityapartments.com,James Peterson,Manager,4,,792000,,6513,Operators of Apartment Buildings,531110,32.984008,117.25938
Associated Banc,Professional Services,5152 Candlewood St # 9g,Lakewood,CA,90712,Los Angeles,682-632-5969,driverstuwilliams.com,Kyle Driver,,,4-Jan,,"$100,000 - $500,000",8721,"Accounting, Auditing, and Bookkeeping Services",541211,33.85352,118.133016
Ardmore Shipping Corporation Common Stock,Professional Services,2207 Coy Avenue,Bakersfield,CA,93307,Kern,214-808-1251,krazan.com,Dean Alexander,President,6,,1056000,,8748,"Business Consulting Services, NEC",541711,35.323233,118.99972
Global X Southeast Asia ETF,Other Business Services,6748 Greenleaf Ave,Whittier,CA,90601,Los Angeles,214-808-1252,locksmith-los-alamitos.com,,,,4-Jan,,Unknown,,"Business Services, NEC",,33.9794986,118.0370973
Liberty All,Real Estate,2803 Camino Del Rio South # 301,San Diego,CA,92108,San Diego,918-354-8912,heffins.com,Shawn Heffernan,Owner,,4-Jan,,Unknown,6512,Operators of Nonresidential Buildings,523930,32.770913,117.134035
"On Assignment, Inc. Common Stock",Legal,1282 South Victoria Avenue # 125,Ventura,CA,93003,Ventura,918-354-8913,venturadui.com,Steven Powell,Partner,3,,501000,,8111,Legal Services,541110,34.26307,119.21185
Ashland Inc. (NEW) Common Stock,Real Estate,4113 Viaduct Marina,Marina Del Rey,CA,90292,Los Angeles,918-354-8914,oakwood.com,Oakwood Kornblugh,Manager,70,,13860000,,6513,Operators of Apartment Buildings,531210,33.98252,118.461081
Deutsche X,Professional Services,1003 Bridgeway # 431,Sausalito,CA,94965,Marin,918-354-8915,unspoken.com,Steven Lee Ulrich,,2,,460000,,8742,Management Consulting Services,541611,37.2337177,122.1296973
Deutsche X,Other Business Services,1862 El  Camino Real #55,Burlingame,CA,94010,San Mateo,918-354-8916,abcservicesssf.com,Claudia Giraldo,,,4-Jan,,Unknown,,"Business Services, NEC",,37.313609,122.1742116
Avino Silver & Gold Mines Ltd. Common Shares (Canada),Printing & Publishing,9802 Baseline Road,Alta Loma,CA,91701,San Bernardino,214-808-1270,dmjsystems.com,DAVID JOHNS,,,4-Jan,,"$100,000 - $500,002",,"Commercial Printing, Lithographic",,34.1226993,117.5903695
"Aspen Aerogels, Inc. Common Stock",Professional Services,1732 Highway 89,Tahoe City,CA,96145,Placer,214-808-1271,sierrasheetmetalandheating.com,Jim Casey,Owner,9,,1431000,,8748,"Business Consulting Services, NEC",541330,39.17409,120.15586
"Grupo Aeroportuario del Sureste, S.A. de C.V. Common Stock",Other Business Services,PO Box 765,Menlo Park,CA,94026,,214-808-1272,happyspacessf.com,Natalia Mulholland,,,4-Jan,,Unknown,,"Business Services, NEC",,37.47843933,122.19
"Asterias Biotherapeutics, Inc. Common Series A",Other Business Services,10863 Cherry St Ste 201,Los Alamitos,CA,90720,Orange,214-808-1273,medpromedicaltesting.com/,MedPro Testing Services,,,4-Jan,,Unknown,,"Business Services, NEC",,33.804644,118.0686008
"Advanced Semiconductor Engineering, Inc. Common Stock",Other Business Services,1290 Kifer Rd. Suite 203,Sunnyvale,CA,94086,Santa Clara,214-808-1274,aitech-usa.com,Shanny Wang,,,4-Jan,,Unknown,,"Business Services, NEC",,37.3727,121.990151
Atlantic Power Corporation Ordinary Shares (Canada),Other Business Services,2527 N McCall Ave,Sanger,CA,93657,Fresno,214-808-1275,woodspest.com/,Greg Cook,Owner,,4-Jan,,"$100,000 - $500,000",,Disinfecting and Pest Control Services,,36.7724511,119.611538
Advantest Corporation (Kabushiki Kaisha Advantest) ADS American Depositary Shares,Other Business Services,40612 County Center Drive,Temecula,CA,92591,Riverside,918-354-8900,staffmark.com,,,,4-Jan,,"$100,000 - $500,000",7361,Employment Agencies,561311,33.127434,117.15916
"A10 Networks, Inc. Common Stock",Professional Services,7079 Orangewood Avenue # 112,Garden Grove,CA,92841,Orange,214-808-1262,hrnetworkinc.com,Audrianne Adams-Lee,Owner,5,,850000,,8742,Management Consulting Services,541612,33.172564,118.100061
"Autohome Inc. American Depositary Shares, each representing one class A ordinary share.",Legal,517 South Figueroa St # 1515,Los Angeles,CA,90071,Los Angeles,682-632-5969,hpdlegal.net,Robert Prata,Manager,5,,835000,,8111,Legal Services,541110,34.052068,118.124834
Allegheny Technologies Incorporated Common Stock,Real Estate,2093 Rose St,Berkeley,CA,94709,Alameda,214-808-1279,gordoncommercial.com,John Gordon,Owner,4,,536000,,6531,Real Estate Agents and Managers,531210,37.88201,122.27031
Alliant Techsystems Inc. Common Stock,Printing & Publishing,21802 Oxnard St # 250,Woodland Hills,CA,91367,Los Angeles,214-808-1280,penton.com,Hershal Sarbin,,,4-Jan,,Unknown,2721,"Periodicals: Publishing, or Publishing and Printing",511120,,
Atlatsa Resources Corporation,Real Estate,4618 Collwood Lane,San Diego,CA,92115,San Diego,214-808-1281,propertysandiego.com,,,,4-Jan,,"$100,000 - $500,000",6512,Operators of Nonresidential Buildings,531312,32.767179,117.084869
"Atlas Energy, L.P. Common Units",Other Business Services,335 Washington Boulevard # 360,Marina Del Rey,CA,90292,Los Angeles,214-808-1282,familyentertainment.biz,Kermit Murray,Owner,3,,1038000,,7389,"Business Services, NEC",454390,33.98123,118.46378
Barclays ETN Plus Select MLP,Advertising & Marketing,7364 Mannix Court,San Diego,CA,92129,San Diego,214-808-1283,mynextsign.com,Ong Yang,Owner,,4-Jan,,"$100,000 - $500,000",3993,Signs and Advertising Specialties,339950,32.938833,117.163825
"Actinium Pharmaceuticals, Inc. (Delaware) Common Stock",Printing & Publishing,2819 West Magnolia Boulevard,Burbank,CA,91505,Los Angeles,214-808-1284,hayescoprinting.com,Dan Sumner,President,5,,715000,,2752,"Commercial Printing, Lithographic",323111,34.17071,118.33869
Atmos Energy Corporation Common Stock,Real Estate,923 East Hillsdale Boulevard,San Mateo,CA,94404,San Mateo,512-343-4501,waxcenter.com/ca-foster-city,,,,4-Jan,,"$1,000,000 - $2,500,002",6512,Operators of Nonresidential Buildings,531120,37.55597,122.2752
"AptarGroup, Inc. Common Stock",Printing & Publishing,3602 American River Drive # 203,Sacramento,CA,95864,Sacramento,512-343-4502,mazzetti.com,Bill Mazzetti,,10,,2070000,,7363,Help Supply Services,561320,38.569931,121.380921
Atento S.A. Ordinary Shares,Real Estate,P.O. Box 57-2467,Tarzana,CA,91357,,682-632-5969,shcommercialrealestate.com,Susan (Sue) Horowitz,,,4-Jan,,Unknown,,Real Estate Agents and Managers,,33.7917979,118.2315573
Actuant Corporation Common Stock,Other Business Services,1014 South Wall Street,Los Angeles,CA,90015,Los Angeles,512-343-4504,musadirect.com,James Bae,,3,,2697000,,,"Business Services, NEC",,34.706655,118.25355
"Acorn International, Inc. ADS",Other Business Services,80 ilex drive,Newbury Park,CA,91320,Ventura,512-343-4505,ultimizer.net,Monica Vernon,,,4-Jan,,Unknown,,"Business Services, NEC",,34.882391,118.926957
"Atwood Oceanics, Inc. Common Stock",Professional Services,4112 Palisades Road,San Diego,CA,92116,San Diego,682-632-5969,freibergs.com,Patti Cipro,Manager,,4-Jan,,$500.000 - $999.1001,8741,Management Services,541618,32.77491,117.19462
AngloGold Ashanti Limited Common Stock,Other Business Services,2064 Business Center Drive #140,Irvine,CA,92612,Orange,512-343-4507,skylinerecoveryllc.com,keng kasn,,,4-Jan,,Unknown,,"Business Services, NEC",,33.67875,117.2649
Golden Minerals Company Common Stock,Legal,106 15th St,West Sacramento,CA,95691,Yolo,512-343-4508,apfss.com,Loriann Calles,Owner,8,,3248000,,8111,Legal Services,517919,38.57123,121.5251
WisdomTree Australia New Zealand Debt Fund,Other Business Services,627 Broadway,San Diego,CA,92101,San Diego,682-632-5969,altaplanning.com,Sherry Ryan,Manager,,4-Jan,,$500.000 - $999.1001,7389,"Business Services, NEC",541410,32.715657,117.15903
AU Optronics Corp American Depositary Shares,Other Business Services,15262 Ventura Boulevard # 1150,Sherman Oaks,CA,91403,Los Angeles,512-343-4507,spherion.com,,,,4-Jan,,"$100,000 - $500,002",7361,Employment Agencies,561311,34.153682,118.46574
AuRico Gold Inc. Ordinary Shares,Insurance,9618 Schlitz Road,Phelan,CA,92371,San Bernardino,214-808-1286,deliveringonthepromise.com/rdemarco,Robin DeMarco,,,4-Jan,,"$1,000,000 - $2,500,002",,Hospital and Medical Service Plans,,34.42507,117.53407
WisdomTree Australia Dividend Index,Other Business Services,25878 The Old Rd. #179,Stevenson Ranch,CA,91381,Los Angeles,214-808-1287,jesusarteaga.com,Jesus Arteaga,,,4-Jan,,Unknown,,"Business Services, NEC",,34.39208,118.1212793
Yamana Gold Inc. Ordinary Shares (Canada),Media,3602 West Magnolia Boulevard,Burbank,CA,91505,Los Angeles,214-808-1288,lastudios.info,Helgar Pedrini,,,4-Jan,,"$1,000,000 - $2,500,002",7812,Motion Picture and Video Tape Production,512110,34.167992,118.1501661
Aviva plc Unsponsored ADR (UK),Professional Services,1143 Scenic Drive # 100,Modesto,CA,95350,Stanislaus,214-808-1243,athertoncpas.com,Linda Stanley,,22,,3806000,,8721,"Accounting, Auditing, and Bookkeeping Services",541211,37.64825,120.97762
Avista Corporation Common Stock,Warehousing & Storage,1848 South 4th St,El Centro,CA,92243,Imperial,214-808-1244,elcentrointerstate.com,Steve Gray,Owner,,4-Jan,,"$100,000 - $500,000",4225,General Warehousing and Storage,531130,32.77685,115.55226
Grupo Aval Acciones y Valores S.A. ADR (Each representing 20 preferred shares),Legal,691 North Arrowhead Avenue,San Bernardino,CA,92401,San Bernardino,214-808-1245,robertgrantlaw.com,Robert Grant,Owner,,4-Jan,,"$100,000 - $500,000",8111,Legal Services,541110,34.11176,117.29
"AvalonBay Communities, Inc. Common Stock",Other Business Services,1404 E. Juana,San Leandro,CA,94577,Alameda,918-354-8904,ghaspwaterdamagerestoration.com/mold-testing/ca/mold-inspection-in-san-leandro-ca/,Terrence Gentry,,,4-Jan,,Unknown,,"Business Services, NEC",,37.72972,122.13378
American Vanguard Corporation Common Stock ($0.10 Par Value),Legal,430 Yale Avenue,Claremont,CA,91711,Los Angeles,918-354-8905,paulbrisson.com,Paul Brisson,,,4-Jan,,Unknown,,Legal Services,,34.09795,117.71791
AVG Technologies N.V. Ordinary Shares,Professional Services,2837 North Naomi St,Burbank,CA,91504,Los Angeles,918-354-8906,aetlab.com,Cyrus Razmara,Executive Director,35,,5005000,,8734,Testing Laboratories,541380,34.20341,118.33996
Avianca Holdings S.A. American Depositary Shares (Each representing 8 preferred Shares),Professional Services,31980 Hilltop Boulevard # D,Running Springs,CA,92382,San Bernardino,214-808-1252,brsltd.org,Victor Cintron,CEO,,4-Jan,,Unknown,8734,Testing Laboratories,541380,34.2055,117.10597
"Aviv REIT, Inc. Common Stock",Advertising & Marketing,2833 F St,Eureka,CA,95501,Humboldt,214-808-1253,coxrasmussen.com,Alicia Cox,Owner,5,,1045000,,7311,Advertising Agencies,541810,40.7826,124.16367
Advent Claymore Convertible Securities and Income Fund,Professional Services,5306 Betsy Ross Drive,Santa Clara,CA,95054,Santa Clara,214-808-1254,promo-line.com,Aldad Matityahu,Owner,50,,10500000,,8743,Public Relations Services,237130,37.407367,121.2393469
"Avalon Rare Metals, Inc. Ordinary Shares (Canada)",Insurance,658 University Avenue,Sacramento,CA,95825,Sacramento,214-808-1255,perryfn.com,Jeff Perry,President,10,,1960000,,6411,"Insurance Agents, Brokers, and Service",524210,38.567121,121.2956036
Avolon Holdings Limited Common Shares,Other Business Services,14003 Jamboree Road,Irvine,CA,92606,Orange,682-632-5969,irvinecompany.com,,,,4-Jan,,$500.000 - $999.1002,7361,Employment Agencies,561311,33.233888,117.3555673
"Avon Products, Inc. Common Stock",Other Business Services,4573 Eucalyptus Avenue,Chino,CA,91710,San Bernardino,214-808-1251,rainchainsworld.com,Junelia Dicousta,,,4-Jan,,Unknown,,"Business Services, NEC",,33.260885,117.4280874
"Avnet, Inc. Common Stock",Other Business Services,314 California St # 400,San Francisco,CA,94104,San Francisco,214-808-1252,jmoorepartners.com,James A Moore,,,4-Jan,,"$100,000 - $500,003",7389,"Business Services, NEC",522320,37.793119,122.400141
Aviva plc Subordinated Capital Securities due 2041,Professional Services,3655 Viaduct Lujosa,Escondido,CA,92025,San Diego,918-354-8912,resourcetrends.com,John Ruetten,,1,,135000,,8748,"Business Consulting Services, NEC",541910,33.070379,117.047899
AVX Corporation Common Stock,Real Estate,333 Pythian Road,Santa Rosa,CA,95409,Sonoma,918-354-8913,torvickrealestate.com,Kathy Torvick,President,2,,268000,,6531,Real Estate Agents and Managers,531210,38.43007,122.58208
Avery Dennison Corporation Common Stock,Legal,103 West San Fernando St # 300,San Jose,CA,95113,Santa Clara,918-354-8914,zilkakotab.com,Dominic Kotab,,2,,334000,,8111,Legal Services,541110,37.1273862,121.140558
Alliancebernstein Global High Income Fund,Legal,15703 Winchester Boulevard,Los Gatos,CA,95030,Santa Clara,918-354-8915,receiversinc.com,Gregory Sterling,Owner,2,,334000,,8111,Legal Services,541110,37.1480615,121.149135
"Allied World Assurance Company Holdings, AG (Switzerland)",Other Business Services,4503 Woodman Ave. Suite A,Sherman Oaks,CA,91423,Los Angeles,918-354-8916,ziegelgroup.com,Ziegel Group,,,4-Jan,,Unknown,,"Business Services, NEC",,34.1530861,118.4308632
Armstrong World Industries Inc Common Stock,Other Business Services,251 Rickenbacker Circle,Livermore,CA,94551,Alameda,214-808-1270,clarkpest.com,Dave Erichsen,,,4-Jan,,Unknown,7342,Disinfecting and Pest Control Services,561710,37.691845,121.8038
"American Water Works Company, Inc. Common Stock",Legal,8914 Research Drive,Irvine,CA,92618,Orange,214-808-1271,shimokaji.com,Michael Shimokaji,Owner,,4-Jan,,$500.000 - $999.1002,8111,Legal Services,541110,33.6427,117.73776
Alpine Global Premier Properties Fund Alpine Global Premier Properties Fund Common Shares of Beneficial Interest,Professional Services,4273 North Blackstone Avenue # 110,Fresno,CA,93726,Fresno,214-808-1272,chcfresno.org,John Shore,Executive Director,,4-Jan,,"$1,000,000 - $2,500,003",8748,"Business Consulting Services, NEC",531390,36.795289,119.790415
American States Water Company Common Stock,Other Business Services,27703 Medical Center Road,Mission Viejo,CA,92691,Orange,214-808-1273,mission4health.com,Richard Kozak,,2000,,212000000,,7389,"Business Services, NEC",561499,33.56187,117.6676
Avalon Holdings Corporation Common Stock,Professional Services,13704 Riverside Drive # 604,Sherman Oaks,CA,91423,Los Angeles,214-808-1274,levineandassociates.com,Larry Levine,Owner,2,,420000,,8743,Public Relations Services,541820,34.157669,118.431302
Anixter International Inc. Common Stock,Printing & Publishing,12403 High Bluff Drive # 100,San Diego,CA,92130,San Diego,214-808-1275,amnhealthcare.com,Susan Salka,CEO,1700,,705843000,,7363,Help Supply Services,561330,32.94466,117.24061
WisdomTree Asia Pacific ex,Legal,3422 West Shaw Avenue,Fresno,CA,93711,Fresno,918-354-8900,gltlaw.com,Gerald Lee Tahajian,,9,,1503000,,8111,Legal Services,541110,36.80816,119.85421
iShares MSCI Asia ex Japan Minimum Volatility ETF,Professional Services,"1033 15th Street, Suite 100",Sacramento,CA,95814,Sacramento,214-808-1262,adt.com,Florene Barefield,,,4-Jan,,Unknown,,"Business Consulting Services, NEC",,33.75782937,117.9
"American Axle & Manufacturing Holdings, Inc. Common Stock",Other Business Services,704 First Ave.,Sunnyvale,CA,94089,Santa Clara,682-632-5969,justmyweight.com,Craig Depew,,,4-Jan,,Unknown,,"Business Services, NEC",,37.57063,122.0182
Axiall Corporation Common Stock,Other Business Services,928 Blcaom Hill Road # 1525,San Jose,CA,95123,Santa Clara,214-808-1279,ethanallen.com,Richard Bloomfield,,20,,6120000,,7389,"Business Services, NEC",541410,37.73488,121.862881
"Aoxing Pharmaceutical Company, Inc. New Common Stock",Transportation & Shipping,2561 Merced Avenue,South El Monte,CA,91733,Los Angeles,214-808-1280,vulcan.com,Joe Garbiero,Owner,,4-Jan,,"$1,000,000 - $2,500,000",3592,"Carburetors, Pistons, Piston Rings, and Valves",332710,34.05892,118.05125
American Express Company Common Stock,Other Business Services,912 North Sepulveda Boulevard,El Segundo,CA,90245,Los Angeles,214-808-1281,loanapp.com,Monica Lezama,,,4-Jan,0,"$1,000,000 - $2,500,000",7389,"Business Services, NEC",561499,33.930064,118.39625
AMREP Corporation Common Stock,Legal,403 South Hope St # 1060,Los Angeles,CA,90071,Los Angeles,214-808-1282,omm.com,Gina Marie Durham,,1500,,0,"$100,000 - $500,003",8111,Legal Services,541110,34.052214,118.253655
Axis Capital Holdings Limited Common Stock,Printing & Publishing,9843 Sixth St.,Rancho Cucamonga,CA,91730,San Bernardino,214-808-1283,safariprinting.com,Shelley Drummond,,2,,414000,,,Printing and Writing Paper,,34.0859906,117.2843656
Axis Capital Holdings Limited Preferred Series C (Bermuda),Legal,Po Box 1903,Redlands,CA,92373,San Bernardino,214-808-1284,waynejohnsonlaw.com,Wayne Johnson,Owner,2,,334000,,8111,Legal Services,541110,34.03424,117.3415883
Axis Capital Holdings Limited Preferred Series D (Bermuda),Legal,163 West Santa Clara St # 1050,San Jose,CA,95113,Santa Clara,512-343-4501,businessandtechnologylawgroup.com,Stephen Hollman,,6,,1002000,,8111,Legal Services,541110,37.33496,121.89307
Axalta Coating Systems Ltd. Common Shares,Other Business Services,"1044 n ogden dr #1, West Holly",Lee Vining,CA,93541,Mono,512-343-4502,laxlegacylimo.com/,Mehdi Nadifi,,,4-Jan,,Unknown,,"Business Services, NEC",,38.0407567,119.1445952
Alexco Resource Corp Common Shares (Canada),Other Business Services,414 Lewis Rd. #190,San Jose,CA,95111,Santa Clara,682-632-5969,quantumleapdatarecovery.com/california/data-recovery-in-san-jose-ca/,Amal Monroe,,,4-Jan,,Unknown,,"Business Services, NEC",,37.29721,121.84172
Alderon Iron Ore Corp. Ordinary Shares (Canada),Professional Services,5633 Cerritos Avenue,Cypress,CA,90630,Orange,512-343-4504,wcct.com,Kenneth Kim,,,4-Jan,,"$100,000 - $500,000",8731,Commercial Physical and Biological Research,541712,33.810096,118.034017
Acuity Brands Inc (Holding Company),Other Business Services,3419 Lancashire Lane,Modesto,CA,95350,Stanislaus,512-343-4505,homereportcardinspections.com,Bob Holmes,President,1,,219000,,7389,"Business Services, NEC",531390,37.687056,120.985551
Alliance New York Municipal Income Fund Inc,Transportation & Shipping,7134 Mirabel Road,Forestville,CA,95436,Sonoma,682-632-5969,rruwater.com,Hal Wood,Owner,9,,2322000,,3713,Truck and Bus Bodies,221310,38.47477,122.190701
Aircastle Limited Common Stock,Other Business Services,3822 23rd St,San Francisco,CA,94114,San Francisco,512-343-4507,apieceofpeace.com,Margaret Belton,,,4-Jan,,"$100,000 - $500,000",7389,"Business Services, NEC",812199,37.753227,122.237398
iPath GEMS Asia 8 ETN,Legal,20753 Ventura Boulevard # 400,Woodland Hills,CA,91364,Los Angeles,512-343-4508,lmwslaw.com,Robert Sherwin,Partner,75,,12525000,,8111,Legal Services,541110,34.166504,118.58531
Global X Central Asia & Mongolia Index ETF,Insurance,14454 Chambers Road Ste 130,Tustin,CA,92780,Orange,682-632-5969,insuremegary.com,Gary Bernat,,,4-Jan,,Unknown,,"Insurance Agents, Brokers, and Service",,33.72201,117.8075
Astrazeneca PLC Common Stock,Professional Services,1130 11th St # 310,Sacramento,CA,95814,Sacramento,512-343-4507,theboveecompany.com,John Bovee,Owner,8,,1680000,,8742,Management Consulting Services,541820,38.578541,121.492658
"AutoZone, Inc. Common Stock",Legal,538 Anton Boulevard # 810,Costa Mesa,CA,92626,Orange,214-808-1286,lawfriend.com,Noel Torgerson,,,4-Jan,,"$100,000 - $500,003",8111,Legal Services,541110,33.69007,117.87688
AZZ Incorporated Common Stock,Professional Services,13264 Moorpark Street Suite 201,Sherman Oaks,CA,91423,Los Angeles,214-808-1287,hadassteincpa.com,Hadas Stein,,4,,1876000,,,"Accounting, Auditing, and Bookkeeping Services",,34.1503,118.422
"Barnes Group, Inc. Common Stock",Advertising & Marketing,8657 Washington Boulevard,Culver City,CA,90232,Los Angeles,214-808-1288,haleymiranda.com,Jed West,Owner,10,,2090000,,7311,Advertising Agencies,541810,34.02997,118.38266
Boeing Company (The) Common Stock,Professional Services,,San Diego,CA,92121,San Diego,682-632-5969,wilsonarchitecture.com,Timothy Wilson,,1,,207000,,8712,Architectural Services,541310,,
BANRO CORPORATION Ordinary Shares,Printing & Publishing,697 South Oxford Avenue,Los Angeles,CA,90005,Los Angeles,214-808-1293,calbook.org,Mary Menzel,Other,,4-Jan,,Unknown,5192,"Books, Periodicals, and Newspapers",813319,34.06004,118.30777
PowerShares Build America Bond Portfolio,Professional Services,3317 Capobella,Aliso Viejo,CA,92656,Orange,214-808-1294,yeseverestcs.com,Diane L Smith,,,4-Jan,,Unknown,8742,Management Consulting Services,999990,33.59489,117.7334
Alibaba Group Holding Limited American Depositary Shares each representing one Ordinary share,Legal,358 South Grand Avenue # 2900,Los Angeles,CA,90071,Los Angeles,214-808-1295,reedsmith.com,Junga Kim,,200,,33400000,,8111,Legal Services,541110,34.052272,118.251991
SPDR Nuveen Barclays Build America Bond ETF,Legal,558 California St,San Francisco,CA,94104,San Francisco,214-808-1296,ltws.com,Wayne H Gilbert,,4,,668000,,8111,Legal Services,541110,37.792714,122.403219
Bank of America Corporation Common Stock,Insurance,2243 East Plaza Boulevard # L,National City,CA,91950,San Diego,682-632-5969,farmersagent.com/tbundalian,Teresita Bundalian,Manager,4,,784000,,6411,"Insurance Agents, Brokers, and Service",524210,32.67871,117.08186
Bank of America Corporation Depositary Shares Rpstg 1/1000th Interest in Sh of Non Cum Pfd Stk Ser D,Other Business Services,3328 Longview Drive,Sacramento,CA,95821,Sacramento,512-343-4513,local.terminix.com,,,,4-Jan,,Unknown,7342,Disinfecting and Pest Control Services,561710,38.643402,121.386575
Bank of America Corporation Depositary Sh repstg 1/1000th Perp Pfd Ser E,Other Business Services,758 East Nees Avenue Unit 27156,Fresno,CA,93729,,512-343-4514,levelupcareers.com,,,,4-Jan,,"$100,000 - $500,003",7361,Employment Agencies,541612,36.85209,119.77134
Bank Amer Corp Dep Sh Repstg 1/1000th Pfd Ser I,Other Business Services,604 East Holt Boulevard,Ontario,CA,91764,San Bernardino,512-343-4515,acesmogcheck.com,Smog Ontario,,3,,324000,,,"Business Services, NEC",,34.06324,117.4179564
Bank of America Corporation Non Cumulative Perpetual Conv Pfd Ser L,Legal,"7703 Irvine Center Drive, Suite 955",Irvine,CA,92618,Orange,512-343-4516,habbaspilaw.com/city/orange-county/,Samer Habbas,,3,,510000,,,Legal Services,,33.659098,117.4865435
Bank of America Corporation Depository Shares Representing 1/1000th Preferred Series W,Legal,322 North Main St # B,Fort Bragg,CA,95437,Mendocino,682-632-5969,fortbragglaw.com,Ryan F Perkins,Partner,2,,334000,,8111,Legal Services,541110,39.4447,123.80608
Bank of America Corporation BAC Capital Trust VIII 6% Capital Securities,Printing & Publishing,103 S. CITRUS SUITE 204,Covina,CA,91723,Los Angeles,512-343-4509,rochaarts.com,ROCHA ARTS,,,4-Jan,,Unknown,,Miscellaneous Publishing,,34.0861,117.89022
"Bank of America Corporation Class A Warrant expiring January 16, 2019",Real Estate,2178 North Calif Boulevard # 300,Walnut Creek,CA,94596,Contra Costa,682-632-5969,cbre.com,Trevor Thorpe,,,4-Jan,,Unknown,6531,Real Estate Agents and Managers,531210,37.90946,122.06544
Bank of America Corporation Class B Warrants expiring 10/28/2018,Legal,"8999 Miramar Rd, Ste 220",San Diego,CA,92126,San Diego,214-808-1293,aimeemorris.com,Aimee Morris,,,4-Jan,,Unknown,,Legal Services,,32.8940773,117.93079
BlackRock Municipal Income Investment Quality Trust,Professional Services,1484 Ford St # 201,Redlands,CA,92373,San Bernardino,214-808-1294,caeap.com,Robert Bruner,President,7,,574000,,8748,"Business Consulting Services, NEC",624190,34.03731,117.10859
Booz Allen Hamilton Holding Corporation Common Stock,Professional Services,3481 Buskirk Avenue # 215,Pleasant Hill,CA,94523,Contra Costa,214-808-1237,mazeassociates.com,Tim Kirsch,,38,,3230000,,8721,"Accounting, Auditing, and Bookkeeping Services",541219,37.941522,122.05711
Braskem SA ADR,Professional Services,28216 Foxlane Drive,Canyon Country,CA,91351,Los Angeles,214-808-1238,svsmusicproductions.com,Scott V Smith,,,4-Jan,,"$50,000 - $100,003",8748,"Business Consulting Services, NEC",541618,34.434377,118.46704
iPath Bloomberg Cotton Subindex Total Return SM Index ETN,Legal,2228 East Bayshore Road # 200,Palo Alto,CA,94303,San Mateo,214-808-1239,williamclewis.com,William Lewis,Owner,4,,668000,,8111,Legal Services,541110,37.450304,122.1231
Baltic Trading Limited Common Stock,Professional Services,1546 West Grand Avenue,Grover Beach,CA,93433,San Luis Obispo,918-354-8907,cashamerica.com,Dan Hutton,,,4-Jan,,$500.000 - $999.1002,8742,Management Consulting Services,522320,35.12118,120.61237
Brookfield Asset Management Inc. Common Stock,Professional Services,3528 Mount Diablo Boulevard 12,Lafayette,CA,94549,Contra Costa,918-354-8908,maryfurlong.com,Mary Furlong,,,4-Jan,,"$100,000 - $500,000",8742,Management Consulting Services,541613,37.287992,122.353844
"Banc of California, Inc. Common Stock",Legal,223 Bush St # 1611,San Francisco,CA,94104,San Francisco,918-354-8909,toothattorney.com,James Davis,,7,,1169000,,8111,Legal Services,541110,37.187348,122.432631
"Banc of California, Inc. Depositary Shares",Insurance,6268 Greenwich Drive # 250,San Diego,CA,92122,San Diego,214-808-1256,hpis.biz,Wayne Washkowiak,Chief Executive Officer,4,,784000,,6411,"Insurance Agents, Brokers, and Service",524210,32.85449,117.1849
Credicorp Ltd. Common Stock,Professional Services,13025 Woodcock Avenue,Sylmar,CA,91342,Los Angeles,214-808-1257,arpnetworks.com,,,,4-Jan,,"$100,000 - $500,000",8712,Architectural Services,541310,34.30606,118.455574
Direxion Daily Gold Bull 3X Shares,Insurance,3173 Crow Canyon Place # 120,San Ramon,CA,94583,Contra Costa,214-808-1258,farmersagent.com/jcarlson5,Jason Carlson,Owner,,4-Jan,,"$100,000 - $500,000",6411,"Insurance Agents, Brokers, and Service",524210,37.777008,121.972436
"Morgan Stanley S&P 500 Crude Oil Linked ETNs due July 1, 2031",Real Estate,876 Stevens Avenue,Solana Beach,CA,92075,San Diego,214-808-1259,equityapartments.com,James Peterson,Manager,4,,792000,,6513,Operators of Apartment Buildings,531110,32.984009,117.25939
"Basic Energy Services, Inc. Common Stock",Professional Services,5153 Candlewood St # 9g,Lakewood,CA,90712,Los Angeles,682-632-5970,driverstuwilliams.com,Kyle Driver,,,4-Jan,,"$100,000 - $500,000",8721,"Accounting, Auditing, and Bookkeeping Services",541211,33.853521,118.133016
Baxter International Inc. Common Stock,Professional Services,2208 Coy Avenue,Bakersfield,CA,93307,Kern,214-808-1253,krazan.com,Dean Alexander,President,6,,1056000,,8748,"Business Consulting Services, NEC",541711,35.323234,118.99972
Banco Bradesco Sa American Depositary Shares,Other Business Services,6749 Greenleaf Ave,Whittier,CA,90601,Los Angeles,214-808-1254,locksmith-los-alamitos.com,,,,4-Jan,,Unknown,,"Business Services, NEC",,33.9794987,118.0370973
Banco Bradesco Sa American Depositary Shares (each representing one Common Share),Real Estate,2804 Camino Del Rio South # 301,San Diego,CA,92108,San Diego,918-354-8917,heffins.com,Shawn Heffernan,Owner,,4-Jan,,Unknown,6512,Operators of Nonresidential Buildings,523930,32.770914,117.134036
BlackRock Municipal Income Investment Trust,Legal,1283 South Victoria Avenue # 125,Ventura,CA,93003,Ventura,918-354-8918,venturadui.com,Steven Powell,Partner,3,,501000,,8111,Legal Services,541110,34.26308,119.21186
Bill Barrett Corporation Common Stock,Real Estate,4114 Viaduct Marina,Marina Del Rey,CA,90292,Los Angeles,918-354-8919,oakwood.com,Oakwood Kornblugh,Manager,70,,13860000,,6513,Operators of Apartment Buildings,531210,33.982521,118.461082
Market Vectors Biotech ETF,Professional Services,1004 Bridgeway # 431,Sausalito,CA,94965,Marin,918-354-8920,unspoken.com,Steven Lee Ulrich,,2,,460000,,8742,Management Consulting Services,541611,37.3935003,122.2187259
Blackrock Municipal Bond Trust,Other Business Services,1863 El  Camino Real #55,Burlingame,CA,94010,San Mateo,918-354-8921,abcservicesssf.com,Claudia Giraldo,,,4-Jan,,Unknown,,"Business Services, NEC",,37.4733916,122.2632402
BHP Billiton plc Sponsored ADR,Printing & Publishing,9803 Baseline Road,Alta Loma,CA,91701,San Bernardino,214-808-1276,dmjsystems.com,DAVID JOHNS,,,4-Jan,,"$100,000 - $500,003",,"Commercial Printing, Lithographic",,34.1226994,117.5903696
BlackRock Build America Bond Trust Common Shares of Beneficial Interest,Professional Services,1733 Highway 89,Tahoe City,CA,96145,Placer,214-808-1277,sierrasheetmetalandheating.com,Jim Casey,Owner,9,,1431000,,8748,"Business Consulting Services, NEC",541330,39.1741,120.15587
EGShares Beyond BRICs ETF,Other Business Services,PO Box 766,Menlo Park,CA,94026,,214-808-1278,happyspacessf.com,Natalia Mulholland,,,4-Jan,,Unknown,,"Business Services, NEC",,37.47843933,122.2
BB&T Corporation Common Stock,Other Business Services,10864 Cherry St Ste 201,Los Alamitos,CA,90720,Orange,214-808-1279,medpromedicaltesting.com/,MedPro Testing Services,,,4-Jan,,Unknown,,"Business Services, NEC",,33.804645,118.0686009
BB&T Corporation Depositary Shares Representing 1/1000th Perpetual Preferred Series D,Other Business Services,1291 Kifer Rd. Suite 203,Sunnyvale,CA,94086,Santa Clara,214-808-1280,aitech-usa.com,Shanny Wang,,,4-Jan,,Unknown,,"Business Services, NEC",,37.372701,121.990152
BB&T Corporation Depositary Shares Representing 1/1000th Perpetual Preferred Series E,Other Business Services,2528 N McCall Ave,Sanger,CA,93657,Fresno,214-808-1281,woodspest.com/,Greg Cook,Owner,,4-Jan,,"$100,000 - $500,000",,Disinfecting and Pest Control Services,,36.7724512,119.611539
BB&T Corporation Depositary Shares Representing 1/1000th Interest Series F Perpetual Preferred,Other Business Services,40613 County Center Drive,Temecula,CA,92591,Riverside,918-354-8901,staffmark.com,,,,4-Jan,,"$100,000 - $500,000",7361,Employment Agencies,561311,33.217694,117.15917
BB&T Corporation Depositary Shares Representing 1/1000th Perpetual Preferred Series G,Professional Services,7080 Orangewood Avenue # 112,Garden Grove,CA,92841,Orange,214-808-1263,hrnetworkinc.com,Audrianne Adams-Lee,Owner,5,,850000,,8742,Management Consulting Services,541612,33.262824,118.149607
Banco Bilbao Vizcaya Argentaria S.A. Common Stock,Legal,518 South Figueroa St # 1515,Los Angeles,CA,90071,Los Angeles,682-632-5970,hpdlegal.net,Robert Prata,Manager,5,,835000,,8111,Legal Services,541110,34.052069,118.17438
Build,Real Estate,2094 Rose St,Berkeley,CA,94709,Alameda,214-808-1285,gordoncommercial.com,John Gordon,Owner,4,,536000,,6531,Real Estate Agents and Managers,531210,37.88202,122.27032
BBX Capital Corporation Common Stock,Printing & Publishing,21803 Oxnard St # 250,Woodland Hills,CA,91367,Los Angeles,214-808-1286,penton.com,Hershal Sarbin,,,4-Jan,,Unknown,2721,"Periodicals: Publishing, or Publishing and Printing",511120,,
"Best Buy Co., Inc. Common Stock",Real Estate,4619 Collwood Lane,San Diego,CA,92115,San Diego,214-808-1287,propertysandiego.com,,,,4-Jan,,"$100,000 - $500,000",6512,Operators of Nonresidential Buildings,531312,32.76718,117.08487
Brunswick Corporation Common Stock,Other Business Services,336 Washington Boulevard # 360,Marina Del Rey,CA,90292,Los Angeles,214-808-1288,familyentertainment.biz,Kermit Murray,Owner,3,,1038000,,7389,"Business Services, NEC",454390,33.98124,118.46379
Corpbanca Sponsored Reg S GDR representing Common (Chile),Advertising & Marketing,7365 Mannix Court,San Diego,CA,92129,San Diego,214-808-1289,mynextsign.com,Ong Yang,Owner,,4-Jan,,"$100,000 - $500,000",3993,Signs and Advertising Specialties,339950,32.938834,117.163826
