"city","city_ascii","lat","lng","country","iso2","iso3","admin_name","capital","population","id"
"Malishevë","Malisheve","42.4822","20.7458","Kosovo","XK","XKS","Malishevë","admin","","1901597212"
"Prizren","Prizren","42.2139","20.7397","Kosovo","XK","XKS","Prizren","admin","","1901360309"
"Zubin Potok","Zubin Potok","42.9144","20.6897","Kosovo","XK","XKS","Zubin Potok","admin","","1901608808"
"Kamenicë","Kamenice","42.5781","21.5803","Kosovo","XK","XKS","Kamenicë","admin","","1901851592"
"Viti","Viti","42.3214","21.3583","Kosovo","XK","XKS","Viti","admin","","1901328795"
"Shtërpcë","Shterpce","42.2394","21.0272","Kosovo","XK","XKS","Shtërpcë","admin","","1901828239"
"Shtime","Shtime","42.4331","21.0397","Kosovo","XK","XKS","Shtime","admin","","1901598505"
"Vushtrri","Vushtrri","42.8231","20.9675","Kosovo","XK","XKS","Vushtrri","admin","","1901107642"
"Dragash","Dragash","42.0265","20.6533","Kosovo","XK","XKS","Dragash","admin","","1901112530"
"Podujevë","Podujeve","42.9111","21.1899","Kosovo","XK","XKS","Podujevë","admin","","1901550082"
"Fushë Kosovë","Fushe Kosove","42.6639","21.0961","Kosovo","XK","XKS","Fushë Kosovë","admin","","1901134407"
"Kaçanik","Kacanik","42.2319","21.2594","Kosovo","XK","XKS","Kaçanik","admin","","1901200321"
"Klinë","Kline","42.6217","20.5778","Kosovo","XK","XKS","Klinë","admin","","1901230162"
"Leposaviq","Leposaviq","43.1039","20.8028","Kosovo","XK","XKS","Leposaviq","admin","","1901974597"
"Pejë","Peje","42.6600","20.2922","Kosovo","XK","XKS","Pejë","admin","","1901339694"
"Rahovec","Rahovec","42.3994","20.6547","Kosovo","XK","XKS","Rahovec","admin","","1901336358"
"Gjilan","Gjilan","42.4689","21.4633","Kosovo","XK","XKS","Gjilan","admin","","1901235642"
"Lipjan","Lipjan","42.5217","21.1258","Kosovo","XK","XKS","Lipjan","admin","","1901682048"
"Obiliq","Obiliq","42.6869","21.0703","Kosovo","XK","XKS","Obiliq","admin","","1901102771"
"Gjakovë","Gjakove","42.3803","20.4308","Kosovo","XK","XKS","Gjakovë","admin","","1901089874"
"Pristina","Pristina","42.6666","21.1724","Kosovo","XK","XKS","Prishtinë","primary","","1901760068"
"Deçan","Decan","42.5378","20.2911","Kosovo","XK","XKS","Deçan","admin","","1901189818"
"Istog","Istog","42.7808","20.4875","Kosovo","XK","XKS","Istog","admin","","1901248770"
"Hani i Elezit","Hani i Elezit","42.1500","21.2967","Kosovo","XK","XKS","Hani i Elezit","admin","","1901964789"
"Junik","Junik","42.4758","20.2772","Kosovo","XK","XKS","Junik","admin","","1901930204"
"Kllokot","Kllokot","42.3714","21.3744","Kosovo","XK","XKS","Kllokot","admin","","1901445768"
"Mamushë","Mamushe","42.3308","20.7269","Kosovo","XK","XKS","Mamushë","admin","","1901042958"
"Partesh","Partesh","42.4019","21.4336","Kosovo","XK","XKS","Partesh","admin","","1901909986"
"Ranillug","Ranillug","42.4922","21.5989","Kosovo","XK","XKS","Ranillug","admin","","1901029901"
"Ferizaj","Ferizaj","42.3706","21.1553","Kosovo","XK","XKS","Ferizaj","admin","","1901875540"
"Zveçan","Zvecan","42.9075","20.8403","Kosovo","XK","XKS","Zveçan","admin","","1901208362"
"Suharekë","Suhareke","42.3586","20.8250","Kosovo","XK","XKS","Suharekë","admin","","1901918563"
"Gllogovc","Gllogovc","42.6283","20.8939","Kosovo","XK","XKS","Gllogovc","admin","","1901031751"
"Mitrovicë","Mitrovice","42.8833","20.8667","Kosovo","XK","XKS","","admin","","1901138430"
"Skenderaj","Skenderaj","42.7467","20.7886","Kosovo","XK","XKS","Skenderaj ","admin","","1901259570"
"Novobërdë","Novoberde","42.6178","21.4197","Kosovo","XK","XKS","Novobërdë","admin","","1901684676"
"Graçanicë","Gracanice","42.6011","21.1958","Kosovo","XK","XKS","Graçanicë","admin","","1901753443"
"Longyearbyen","Longyearbyen","78.2167","15.6333","Svalbard","XR","XSV","","primary","","1930654114"
"Al Quds","Al Quds","31.7764","35.2269","West Bank","XW","XWB","","primary","","1934000006"
"Sanaa","Sanaa","15.3547","44.2066","Yemen","YE","YEM","Amānat al ‘Āşimah","primary","2008000","1887750814"
"Marib","Marib","15.4210","45.3340","Yemen","YE","YEM","Ma’rib","admin","16794","1887153216"
"Al Jabīn","Al Jabin","14.7040","43.5990","Yemen","YE","YEM","Raymah","admin","","1887910100"
"Hajjah","Hajjah","15.6917","43.6021","Yemen","YE","YEM","Ḩajjah","admin","208287","1887522445"
"Ibb","Ibb","13.9759","44.1709","Yemen","YE","YEM","Ibb","admin","234837","1887321491"
"Al Hudaydah","Al Hudaydah","14.7979","42.9530","Yemen","YE","YEM","Al Ḩudaydah","admin","780000","1887984890"
"Lahij","Lahij","13.0582","44.8838","Yemen","YE","YEM","Laḩij","admin","66288","1887871834"
"Al Maḩwīt","Al Mahwit","15.4701","43.5448","Yemen","YE","YEM","Al Maḩwīt","admin","","1887764813"
"Taizz","Taizz","13.6045","44.0394","Yemen","YE","YEM","Ta‘izz","admin","751000","1887324526"
"Sadah","Sadah","16.9398","43.8498","Yemen","YE","YEM","Şa‘dah","admin","105542","1887513055"
"Dhamar","Dhamar","14.5575","44.3875","Yemen","YE","YEM","Dhamār","admin","191259","1887135215"
"‘Amrān","`Amran","15.6594","43.9439","Yemen","YE","YEM","‘Amrān","admin","","1887433410"
"Aḑ Ḑāli‘","Ad Dali`","13.6957","44.7314","Yemen","YE","YEM","Aḑ Ḑāli‘","admin","","1887607369"
"Saywun","Saywun","15.9430","48.7873","Yemen","YE","YEM","Ḩaḑramawt","minor","68747","1887142998"
"Al Bayda","Al Bayda","13.9790","45.5740","Yemen","YE","YEM","Al Bayḑā’","admin","37821","1887788283"
"Zinjibār","Zinjibar","13.1287","45.3807","Yemen","YE","YEM","Abyan","admin","","1887645956"
"Rida","Rida","14.4295","44.8341","Yemen","YE","YEM","Al Bayḑā’","minor","45233","1887090855"
"'Ataq","'Ataq","14.5500","46.8000","Yemen","YE","YEM","Shabwah","admin","37315","1887172893"
"Al Ghaydah","Al Ghaydah","16.2394","52.1638","Yemen","YE","YEM","Al Mahrah","admin","27404","1887000479"
"Sayhut","Sayhut","15.2105","51.2454","Yemen","YE","YEM","Al Mahrah","minor","189","1887613470"
"Al Mukalla","Al Mukalla","14.5412","49.1259","Yemen","YE","YEM","Ḩaḑramawt","admin","258132","1887202594"
"Al Ḩazm","Al Hazm","16.1641","44.7769","Yemen","YE","YEM","Al Jawf","admin","","1887549671"
"Zabīd","Zabid","14.1951","43.3155","Yemen","YE","YEM","Al Ḩudaydah","minor","152504","1887877995"
"Aden","Aden","12.7797","45.0095","Yemen","YE","YEM","‘Adan","admin","1000000","1887867886"
"Hadiboh","Hadiboh","12.6519","54.0239","Yemen","YE","YEM","Arkhabīl Suquţrá","admin","11396","1887452377"
"Ash Shihr","Ash Shihr","14.7593","49.6092","Yemen","YE","YEM","Ḩaḑramawt","minor","54274","1887657562"
"Dzaoudzi","Dzaoudzi","-12.7871","45.2750","Mayotte","YT","MYT","","admin","32057","1175099654"
"Lebowakgomo","Lebowakgomo","-24.1996","29.5000","South Africa","ZA","ZAF","Limpopo","","33308","1710999076"
"Potchefstroom","Potchefstroom","-26.6996","27.1000","South Africa","ZA","ZAF","North West","","123669","1710838885"
"Graaff Reinet","Graaff Reinet","-32.3000","24.5400","South Africa","ZA","ZAF","Eastern Cape","","62896","1710616617"
"Rustenburg","Rustenburg","-25.6500","27.2400","South Africa","ZA","ZAF","North West","","165976","1710326039"
"Brandfort","Brandfort","-28.6996","26.4700","South Africa","ZA","ZAF","Free State","","12091","1710953731"
"Vryheid","Vryheid","-27.7600","30.7900","South Africa","ZA","ZAF","KwaZulu-Natal","","150012","1710716158"
"Vereeniging","Vereeniging","-26.6496","27.9600","South Africa","ZA","ZAF","Gauteng","","1074000","1710271883"
"Brits","Brits","-25.6296","27.7800","South Africa","ZA","ZAF","North West","","122497","1710468143"
"Bethlehem","Bethlehem","-28.2196","28.3000","South Africa","ZA","ZAF","Free State","","83654","1710750307"
"Ubomba","Ubomba","-27.5661","32.0833","South Africa","ZA","ZAF","KwaZulu-Natal","","564","1710203500"
"Polokwane","Polokwane","-23.8900","29.4500","South Africa","ZA","ZAF","Limpopo","admin","220045","1710908010"
"Springbok","Springbok","-29.6667","17.8833","South Africa","ZA","ZAF","Northern Cape","","10438","1710894218"
"Thohoyandou","Thohoyandou","-22.9500","30.4800","South Africa","ZA","ZAF","Limpopo","","269707","1710219075"
"Pietermaritzburg","Pietermaritzburg","-29.6100","30.3900","South Africa","ZA","ZAF","KwaZulu-Natal","admin","750845","1710690280"
"Poffader","Poffader","-29.1329","19.3834","South Africa","ZA","ZAF","Northern Cape","","4220","1710817164"
"Carnarvon","Carnarvon","-30.9496","22.1333","South Africa","ZA","ZAF","Northern Cape","","5785","1710331786"
"Kroonstad","Kroonstad","-27.6600","27.2100","South Africa","ZA","ZAF","Free State","","103992","1710508288"
"Alexander Bay","Alexander Bay","-28.6083","16.5033","South Africa","ZA","ZAF","Northern Cape","","1500","1710616152"
"Bloemhof","Bloemhof","-27.6496","25.5900","South Africa","ZA","ZAF","North West","","17122","1710321800"
"Hermanus","Hermanus","-34.4096","19.2299","South Africa","ZA","ZAF","Western Cape","","25153","1710409701"
"Bethal","Bethal","-26.4696","29.4500","South Africa","ZA","ZAF","Mpumalanga","","101919","1710328253"
"Upington","Upington","-28.4600","21.2300","South Africa","ZA","ZAF","Northern Cape","","71373","1710210449"
"Tzaneen","Tzaneen","-23.8195","30.1700","South Africa","ZA","ZAF","Limpopo","","67245","1710120942"
"Vanhynsdorp","Vanhynsdorp","-31.6166","18.7333","South Africa","ZA","ZAF","Western Cape","","3331","1710187274"
"Kimberley","Kimberley","-28.7468","24.7700","South Africa","ZA","ZAF","Northern Cape","admin","165264","1710282622"
"Durban","Durban","-29.8650","30.9800","South Africa","ZA","ZAF","KwaZulu-Natal","","2729000","1710149138"
"Klerksdorp","Klerksdorp","-26.8800","26.6200","South Africa","ZA","ZAF","North West","","178921","1710416691"
"Welkom","Welkom","-27.9700","26.7300","South Africa","ZA","ZAF","Free State","","431944","1710480365"
"De Aar","De Aar","-30.6500","24.0000","South Africa","ZA","ZAF","Northern Cape","","32318","1710551900"
"Prieska","Prieska","-29.6595","22.7300","South Africa","ZA","ZAF","Northern Cape","","11236","1710649877"
"Saldanha","Saldanha","-33.0100","17.9300","South Africa","ZA","ZAF","Western Cape","","68284","1710078862"
"Middelburg","Middelburg","-31.5000","25.0100","South Africa","ZA","ZAF","Eastern Cape","","18164","1710010705"
"Port St. Johns","Port St. Johns","-31.6279","29.5283","South Africa","ZA","ZAF","Eastern Cape","","5939","1710506018"
"Volksrust","Volksrust","-27.3596","29.8900","South Africa","ZA","ZAF","Mpumalanga","","43378","1710664906"
"Ulundi","Ulundi","-28.3296","31.4100","South Africa","ZA","ZAF","KwaZulu-Natal","","20753","1710823263"
"Beaufort West","Beaufort West","-32.3496","22.5700","South Africa","ZA","ZAF","Western Cape","","44737","1710940488"
"Komatipoort","Komatipoort","-25.4096","31.9400","South Africa","ZA","ZAF","Mpumalanga","","20508","1710137353"
"Nelspruit","Nelspruit","-25.4745","30.9703","South Africa","ZA","ZAF","Mpumalanga","admin","","1710114438"
"Standerton","Standerton","-26.9395","29.2400","South Africa","ZA","ZAF","Mpumalanga","","74021","1710222465"
"Johannesburg","Johannesburg","-26.1700","28.0300","South Africa","ZA","ZAF","Gauteng","admin","3435000","1710550792"
"Kuruman","Kuruman","-27.4496","23.4200","South Africa","ZA","ZAF","Northern Cape","","10006","1710332978"
"Paarl","Paarl","-33.6996","18.9600","South Africa","ZA","ZAF","Western Cape","","187865","1710440011"
"Worcester","Worcester","-33.6400","19.4399","South Africa","ZA","ZAF","Western Cape","","127597","1710498245"
"Colesberg","Colesberg","-30.7195","25.1000","South Africa","ZA","ZAF","Northern Cape","","12423","1710885210"
"Umtata","Umtata","-31.5800","28.7900","South Africa","ZA","ZAF","Eastern Cape","","137772","1710651314"
"Aliwal North","Aliwal North","-30.6896","26.7100","South Africa","ZA","ZAF","Eastern Cape","","44436","1710445896"
"Middelburg","Middelburg","-25.7596","29.4700","South Africa","ZA","ZAF","Mpumalanga","","154706","1710495632"
"Springs","Springs","-26.2696","28.4300","South Africa","ZA","ZAF","Gauteng","","236083","1710058382"
"Benoni","Benoni","-26.1496","28.3299","South Africa","ZA","ZAF","Gauteng","","2986000","1710880986"
"Port Shepstone","Port Shepstone","-30.7195","30.4600","South Africa","ZA","ZAF","KwaZulu-Natal","","52793","1710443227"
"Oudtshoorn","Oudtshoorn","-33.5800","22.1900","South Africa","ZA","ZAF","Western Cape","","76708","1710502855"
"Port Elizabeth","Port Elizabeth","-33.9700","25.6000","South Africa","ZA","ZAF","Eastern Cape","","1021000","1710918997"
"Port Alfred","Port Alfred","-33.5995","26.8800","South Africa","ZA","ZAF","Eastern Cape","","17959","1710920478"
"East London","East London","-32.9700","27.8700","South Africa","ZA","ZAF","Eastern Cape","","338627","1710178149"
"Mossel Bay","Mossel Bay","-34.1700","22.1300","South Africa","ZA","ZAF","Western Cape","","16743","1710597106"
"Vryburg","Vryburg","-26.9600","24.7300","South Africa","ZA","ZAF","North West","","49588","1710969597"
"Uitenhage","Uitenhage","-33.7596","25.3900","South Africa","ZA","ZAF","Eastern Cape","","228912","1710276157"
"Bhisho","Bhisho","-32.8700","27.3900","South Africa","ZA","ZAF","Eastern Cape","admin","160997","1710672530"
"Knysna","Knysna","-34.0329","23.0333","South Africa","ZA","ZAF","Western Cape","","63106","1710311704"
"Queenstown","Queenstown","-31.8996","26.8800","South Africa","ZA","ZAF","Eastern Cape","","105309","1710110028"
"Cradock","Cradock","-32.1995","25.6100","South Africa","ZA","ZAF","Eastern Cape","","32898","1710933404"
"Bredasdorp","Bredasdorp","-34.5295","20.0300","South Africa","ZA","ZAF","Western Cape","","14936","1710282172"
"Swellendam","Swellendam","-34.0196","20.4300","South Africa","ZA","ZAF","Western Cape","","13674","1710416218"
"Ladysmith","Ladysmith","-28.5495","29.7800","South Africa","ZA","ZAF","KwaZulu-Natal","","47375","1710998347"
"George","George","-33.9500","22.4500","South Africa","ZA","ZAF","Western Cape","","174582","1710164136"
"Grahamstown","Grahamstown","-33.2996","26.5200","South Africa","ZA","ZAF","Eastern Cape","","91548","1710671857"
"Mmabatho","Mmabatho","-25.8300","25.6100","South Africa","ZA","ZAF","North West","","104428","1710524815"
"Mahikeng","Mahikeng","-25.8652","25.6442","South Africa","ZA","ZAF","North West","admin","","1710965423"
"Musina","Musina","-22.3400","30.0300","South Africa","ZA","ZAF","Limpopo","","20191","1710956370"
"Pretoria","Pretoria","-25.7069","28.2294","South Africa","ZA","ZAF","Gauteng","primary","1338000","1710176249"
"Bloemfontein","Bloemfontein","-29.1200","26.2299","South Africa","ZA","ZAF","Free State","primary","463064","1710495933"
"Cape Town","Cape Town","-33.9200","18.4350","South Africa","ZA","ZAF","Western Cape","primary","3215000","1710680650"
"Zambezi","Zambezi","-13.5400","23.1099","Zambia","ZM","ZMB","North-Western","","7074","1894660797"
"Solwezi","Solwezi","-12.1796","26.4000","Zambia","ZM","ZMB","North-Western","admin","65000","1894777820"
"Lusaka","Lusaka","-15.4166","28.2833","Zambia","ZM","ZMB","Lusaka","primary","1328000","1894157390"
"Kaoma","Kaoma","-14.7796","24.8000","Zambia","ZM","ZMB","Western","","14212","1894846267"
"Chipata","Chipata","-13.6296","32.6400","Zambia","ZM","ZMB","Eastern","admin","85963","1894816262"
"Senanga","Senanga","-16.1196","23.2700","Zambia","ZM","ZMB","Western","","10005","1894742251"
"Sesheke","Sesheke","-17.4695","24.3000","Zambia","ZM","ZMB","Western","","20149","1894753767"
"Chililabombwe","Chililabombwe","-12.3696","27.8200","Zambia","ZM","ZMB","Copperbelt","","82068","1894950283"
"Chingola","Chingola","-12.5396","27.8500","Zambia","ZM","ZMB","Copperbelt","","182015","1894202007"
"Kasempa","Kasempa","-13.4596","25.8200","Zambia","ZM","ZMB","North-Western","","5622","1894152710"
"Kitwe","Kitwe","-12.8100","28.2200","Zambia","ZM","ZMB","Copperbelt","","404901","1894321752"
"Mufulira","Mufulira","-12.5500","28.2600","Zambia","ZM","ZMB","Copperbelt","","153624","1894907880"
"Nchelenge","Nchelenge","-9.3496","28.7300","Zambia","ZM","ZMB","Luapula","","23693","1894890604"
"Mazabuka","Mazabuka","-15.8600","27.7600","Zambia","ZM","ZMB","Southern","","64006","1894390715"
"Lukulu","Lukulu","-14.3896","23.2400","Zambia","ZM","ZMB","Western","","3349","1894281443"
"Kafue","Kafue","-15.7800","28.1800","Zambia","ZM","ZMB","Lusaka","","47554","1894930695"
"Lundazi","Lundazi","-12.2895","33.1700","Zambia","ZM","ZMB","Eastern","","11635","1894277247"
"Mansa","Mansa","-11.2000","28.8900","Zambia","ZM","ZMB","Luapula","admin","42277","1894038366"
"Mwinilunga","Mwinilunga","-11.7396","24.4400","Zambia","ZM","ZMB","North-Western","","13798","1894210586"
"Mumbwa","Mumbwa","-14.9796","27.0700","Zambia","ZM","ZMB","Central","","19086","1894568812"
"Kalabo","Kalabo","-14.9896","22.6800","Zambia","ZM","ZMB","Western","","7731","1894966417"
"Nyimba","Nyimba","-14.5495","30.8100","Zambia","ZM","ZMB","Eastern","","1336","1894088472"
"Kapiri Mposhi","Kapiri Mposhi","-13.9696","28.6600","Zambia","ZM","ZMB","Central","","37942","1894676779"
"Kabwe","Kabwe","-14.4400","28.4500","Zambia","ZM","ZMB","Central","admin","188979","1894711746"
"Ndola","Ndola","-12.9999","28.6500","Zambia","ZM","ZMB","Copperbelt","admin","396339","1894032745"
"Kasama","Kasama","-10.1996","31.1799","Zambia","ZM","ZMB","Northern","admin","200000","1894305215"
"Mbala","Mbala","-8.8400","31.3700","Zambia","ZM","ZMB","Northern","","20570","1894671312"
"Kawambwa","Kawambwa","-9.7795","29.0800","Zambia","ZM","ZMB","Luapula","","20589","1894964184"
"Luanshya","Luanshya","-13.1333","28.4000","Zambia","ZM","ZMB","Copperbelt","","151993","1894410334"
"Mongu","Mongu","-15.2796","23.1200","Zambia","ZM","ZMB","Western","admin","52534","1894761291"
"Mpika","Mpika","-11.8300","31.4600","Zambia","ZM","ZMB","Muchinga","","28445","1894224372"
"Chinsali","Chinsali","-10.5496","32.0600","Zambia","ZM","ZMB","Muchinga","admin","14015","1894041491"
"Livingstone","Livingstone","-17.8600","25.8600","Zambia","ZM","ZMB","Southern","","165480","1894634581"
"Choma","Choma","-16.8095","26.9700","Zambia","ZM","ZMB","Southern","admin","46746","1894419971"
"Plumtree","Plumtree","-20.4795","27.8200","Zimbabwe","ZW","ZWE","","","2148","1716916272"
"Kariba","Kariba","-16.5296","28.8000","Zimbabwe","ZW","ZWE","","","25531","1716563536"
"Hwange","Hwange","-18.3700","26.5000","Zimbabwe","ZW","ZWE","","","33989","1716416748"
"Chiredzi","Chiredzi","-21.0496","31.6600","Zimbabwe","ZW","ZWE","","","28205","1716636761"
"Mazowe","Mazowe","-17.5196","30.9700","Zimbabwe","ZW","ZWE","Mashonaland Central","","9966","1716608716"
"Zvishavane","Zvishavane","-20.3296","30.0500","Zimbabwe","ZW","ZWE","Masvingo","","35896","1716895095"
"Shamva","Shamva","-17.3196","31.5700","Zimbabwe","ZW","ZWE","Mashonaland Central","","10317","1716210091"
"Harare","Harare","-17.8178","31.0447","Zimbabwe","ZW","ZWE","Harare","primary","1572000","1716196799"
"Kwekwe","Kwekwe","-18.9296","29.8000","Zimbabwe","ZW","ZWE","Midlands","","99149","1716327793"
"Kadoma","Kadoma","-18.3300","29.9099","Zimbabwe","ZW","ZWE","Mashonaland West","","79174","1716398005"
"Beitbridge","Beitbridge","-22.2096","29.9900","Zimbabwe","ZW","ZWE","","","26459","1716929295"
"Karoi","Karoi","-16.8196","29.6800","Zimbabwe","ZW","ZWE","Mashonaland West","","25030","1716627056"
"Victoria Falls","Victoria Falls","-17.9296","25.8400","Zimbabwe","ZW","ZWE","Matabeleland North","","35761","1716149447"
"Chitungwiza","Chitungwiza","-18.0000","31.1000","Zimbabwe","ZW","ZWE","Harare","","340360","1716688236"
"Bindura","Bindura","-17.3019","31.3306","Zimbabwe","ZW","ZWE","Mashonaland Central","admin","","1716331687"
"Lupane","Lupane","-18.9315","27.8070","Zimbabwe","ZW","ZWE","Matabeleland North","admin","","1716206606"
"Marondera","Marondera","-18.1853","31.5519","Zimbabwe","ZW","ZWE","Mashonaland East","admin","","1716375676"
"Masvingo","Masvingo","-20.0596","30.8200","Zimbabwe","ZW","ZWE","Masvingo","admin","76311","1716049475"
"Mutare","Mutare","-18.9700","32.6500","Zimbabwe","ZW","ZWE","Manicaland","admin","249365","1716060405"
"Bulawayo","Bulawayo","-20.1700","28.5800","Zimbabwe","ZW","ZWE","Bulawayo","admin","699385","1716032632"
"Chinhoyi","Chinhoyi","-17.3596","30.1800","Zimbabwe","ZW","ZWE","Mashonaland West","admin","61739","1716523245"
"Gwanda","Gwanda","-20.9396","29.0100","Zimbabwe","ZW","ZWE","Matabeleland South","admin","14450","1716612305"
"Gweru","Gweru","-19.4500","29.8200","Zimbabwe","ZW","ZWE","Midlands","admin","183358","1716621481"
"Maqat","Maqat","47.6482","53.3265","Kazakhstan","KZ","KAZ","Atyraū","","14082","1398887034"
"Zhangaozen","Zhangaozen","43.3004","52.8000","Kazakhstan","KZ","KAZ","Mangghystaū","","8895","1398274968"
"Taraz","Taraz","42.9000","71.3650","Kazakhstan","KZ","KAZ","Zhambyl","admin","358153","1398626276"
"Oral","Oral","51.2711","51.3350","Kazakhstan","KZ","KAZ","Batys Qazaqstan","admin","209788","1398593972"
"Balqash","Balqash","46.8532","74.9502","Kazakhstan","KZ","KAZ","Qaraghandy","","81364","1398134106"
"Zaysan","Zaysan","47.4752","84.8598","Kazakhstan","KZ","KAZ","Shyghys Qazaqstan","","17600","1398700526"
"Oytal","Oytal","42.9153","73.2549","Kazakhstan","KZ","KAZ","Zhambyl","","22673","1398816918"
"Zholymbet","Zholymbet","51.7502","71.7099","Kazakhstan","KZ","KAZ","Aqmola","","6876","1398035914"
"Serebryansk","Serebryansk","49.6999","83.4249","Kazakhstan","KZ","KAZ","Shyghys Qazaqstan","","701","1398188434"
"Chapaev","Chapaev","50.1915","51.1449","Kazakhstan","KZ","KAZ","Batys Qazaqstan","","6000","1398386733"
"Ridder","Ridder","50.3554","83.5149","Kazakhstan","KZ","KAZ","Shyghys Qazaqstan","","56756","1398556139"
"Zhaltyr","Zhaltyr","51.6324","69.8328","Kazakhstan","KZ","KAZ","Aqmola","","694","1398809487"
"Atbasar","Atbasar","51.8219","68.3477","Kazakhstan","KZ","KAZ","Aqmola","","35819","1398900162"
"Aqsay","Aqsay","51.1714","53.0349","Kazakhstan","KZ","KAZ","Batys Qazaqstan","","34799","1398621920"
"Shemonaikha","Shemonaikha","50.6316","81.9050","Kazakhstan","KZ","KAZ","Shyghys Qazaqstan","","27176","1398507085"
"Atasu","Atasu","48.6903","71.6499","Kazakhstan","KZ","KAZ","Qaraghandy","","19616","1398926180"
"Rudny","Rudny","52.9527","63.1300","Kazakhstan","KZ","KAZ","Qostanay","","124000","1398701954"
"Makhambet","Makhambet","47.6714","51.5798","Kazakhstan","KZ","KAZ","Atyraū","","8905","1398232608"
"Fort Shevchenko","Fort Shevchenko","44.5171","50.2666","Kazakhstan","KZ","KAZ","Mangghystaū","","5213","1398201971"
"Qusmuryn","Qusmuryn","52.4580","64.6000","Kazakhstan","KZ","KAZ","Qostanay","","8049","1398335766"
"Oktyabrsk","Oktyabrsk","49.4731","57.4449","Kazakhstan","KZ","KAZ","Aqtöbe","","28196","1398394723"
"Khromtau","Khromtau","50.2699","58.4500","Kazakhstan","KZ","KAZ","Aqtöbe","","23715","1398766984"
"Algha","Algha","49.9032","57.3350","Kazakhstan","KZ","KAZ","Aqtöbe","","28267","1398920371"
"Embi","Embi","48.8268","58.1442","Kazakhstan","KZ","KAZ","Aqtöbe","","18760","1398915734"
"Ushtobe","Ushtobe","45.2653","77.9700","Kazakhstan","KZ","KAZ","Almaty","","20492","1398940566"
"Burylbaytal","Burylbaytal","44.9387","74.0303","Kazakhstan","KZ","KAZ","Zhambyl","","100","1398655547"
"Zhanibek","Zhanibek","49.4276","46.8772","Kazakhstan","KZ","KAZ","Batys Qazaqstan","","8212","1398255562"
"Esil","Esil","51.9570","66.3775","Kazakhstan","KZ","KAZ","Aqmola","","13504","1398546225"
"Derzhavinsk","Derzhavinsk","51.1021","66.3075","Kazakhstan","KZ","KAZ","Aqmola","","15848","1398070336"
"Saryshaghan","Saryshaghan","46.1195","73.6191","Kazakhstan","KZ","KAZ","Qaraghandy","","4365","1398222668"
"Turgay","Turgay","49.6260","63.4990","Kazakhstan","KZ","KAZ","Qostanay","","5277","1398845535"
"Sarqan","Sarqan","45.4203","79.9149","Kazakhstan","KZ","KAZ","Almaty","","76919","1398159801"
"Arqalyq","Arqalyq","50.2418","66.8976","Kazakhstan","KZ","KAZ","Qostanay","","55521","1398980293"
"Shalqar","Shalqar","47.8363","59.6141","Kazakhstan","KZ","KAZ","Aqtöbe","","27256","1398440872"
"Shieli","Shieli","44.1670","66.7500","Kazakhstan","KZ","KAZ","Qyzylorda","","29832","1398206798"
"Bayghanin","Bayghanin","48.6917","55.8740","Kazakhstan","KZ","KAZ","Aqtöbe","","7657","1398205914"
"Zhezqazghan","Zhezqazghan","47.7800","67.7700","Kazakhstan","KZ","KAZ","Qaraghandy","","104357","1398121545"
"Mangyshlak","Mangyshlak","43.6905","51.1417","Kazakhstan","KZ","KAZ","Mangghystaū","","147443","1398790140"
"Zhosaly","Zhosaly","45.4877","64.0780","Kazakhstan","KZ","KAZ","Qyzylorda","","20065","1398510696"
"Beyneu","Beyneu","45.1834","55.1000","Kazakhstan","KZ","KAZ","Mangghystaū","","32452","1398655445"
"Qazaly","Qazaly","45.7628","62.1075","Kazakhstan","KZ","KAZ","Qyzylorda","","6582","1398983835"
"Aral","Aral","46.8000","61.6666","Kazakhstan","KZ","KAZ","Qyzylorda","","33017","1398109811"
"Ayakoz","Ayakoz","47.9647","80.4297","Kazakhstan","KZ","KAZ","Shyghys Qazaqstan","","45861","1398040009"
"Urzhar","Urzhar","47.1002","81.6048","Kazakhstan","KZ","KAZ","Shyghys Qazaqstan","","14826","1398461653"
"Qapshaghay","Qapshaghay","43.8844","77.0687","Kazakhstan","KZ","KAZ","Almaty","","42167","1398594098"
"Esik","Esik","43.3691","77.4438","Kazakhstan","KZ","KAZ","Almaty","","35319","1398166418"
"Qaratau","Qaratau","43.1854","70.4600","Kazakhstan","KZ","KAZ","Zhambyl","","37881","1398932329"
"Sharbaqty","Sharbaqty","52.4999","78.1499","Kazakhstan","KZ","KAZ","Pavlodar","","107","1398705015"
"Oostanay","Oostanay","53.2209","63.6283","Kazakhstan","KZ","KAZ","Qostanay","admin","236901","1398455461"
"Kachiry","Kachiry","53.0804","76.0900","Kazakhstan","KZ","KAZ","Pavlodar","","8931","1398362078"
"Kishkenekol","Kishkenekol","53.6368","72.3414","Kazakhstan","KZ","KAZ","Soltüstik Qazaqstan","","6779","1398061261"
"Bulaevo","Bulaevo","54.9053","70.4400","Kazakhstan","KZ","KAZ","Soltüstik Qazaqstan","","9886","1398659796"
"Shonzhy","Shonzhy","43.5421","79.4703","Kazakhstan","KZ","KAZ","Almaty","","3902","1398268525"
"Qyzylorda","Qyzylorda","44.8000","65.4650","Kazakhstan","KZ","KAZ","Qyzylorda","admin","300000","1398248334"
"Qaraghandy","Qaraghandy","49.8850","73.1150","Kazakhstan","KZ","KAZ","Qaraghandy","admin","451800","1398274508"
"Ertis","Ertis","53.3453","75.4499","Kazakhstan","KZ","KAZ","Pavlodar","","9216","1398172080"
"Tayynsha","Tayynsha","53.8481","69.7638","Kazakhstan","KZ","KAZ","Soltüstik Qazaqstan","","13148","1398304928"
"Qulan","Qulan","42.9204","72.7050","Kazakhstan","KZ","KAZ","Zhambyl","","13128","1398525079"
"Shu","Shu","43.5953","73.7448","Kazakhstan","KZ","KAZ","Zhambyl","","42439","1398834769"
"Kentau","Kentau","43.5165","68.5199","Kazakhstan","KZ","KAZ","Ongtüstik Qazaqstan","","57408","1398997742"
"Oskemen","Oskemen","49.9900","82.6149","Kazakhstan","KZ","KAZ","Shyghys Qazaqstan","admin","319067","1398371414"
"Aqtau","Aqtau","43.6232","51.2365","Kazakhstan","KZ","KAZ","Mangghystaū","admin","4479","1398046759"
"Taldyqorghan","Taldyqorghan","45.0000","78.4000","Kazakhstan","KZ","KAZ","Almaty","admin","88380","1398112507"
"Astana","Astana","51.1811","71.4278","Kazakhstan","KZ","KAZ","Astana","primary","345604","1398516045"
"Aqtobe","Aqtobe","50.2800","57.1700","Kazakhstan","KZ","KAZ","Aqtöbe","admin","262457","1398602716"
"Kokshetau","Kokshetau","53.3000","69.4200","Kazakhstan","KZ","KAZ","Aqmola","admin","128873","1398375387"
"Petropavlovsk","Petropavlovsk","54.8800","69.2200","Kazakhstan","KZ","KAZ","Soltüstik Qazaqstan","admin","228238","1398252858"
"Pavlodar","Pavlodar","52.3000","76.9500","Kazakhstan","KZ","KAZ","Pavlodar","admin","329002","1398790087"
"Otar","Otar","43.5346","75.2139","Kazakhstan","KZ","KAZ","Zhambyl","","11238","1398243169"
"Almaty","Almaty","43.3250","76.9150","Kazakhstan","KZ","KAZ","Almaty","admin","1209000","1398351701"
"Bestobe","Bestobe","52.4997","73.0997","Kazakhstan","KZ","KAZ","Aqmola","","7189","1398545422"
"Arys","Arys","42.4369","68.8048","Kazakhstan","KZ","KAZ","Ongtüstik Qazaqstan","","42648","1398483570"
"Lenger","Lenger","42.1899","69.8799","Kazakhstan","KZ","KAZ","Ongtüstik Qazaqstan","","23058","1398031838"
"Aqsu","Aqsu","52.4502","71.9597","Kazakhstan","KZ","KAZ","Aqmola","","8543","1398268556"
"Temirtau","Temirtau","50.0650","72.9650","Kazakhstan","KZ","KAZ","Qaraghandy","","170600","1398081646"
"Makinsk","Makinsk","52.6404","70.4100","Kazakhstan","KZ","KAZ","Aqmola","","23020","1398733675"
"Osakarovka","Osakarovka","50.5799","72.5699","Kazakhstan","KZ","KAZ","Qaraghandy","","7305","1398243007"
"Qarqaraly","Qarqaraly","49.4249","75.4649","Kazakhstan","KZ","KAZ","Qaraghandy","","8195","1398407379"
"Ekibastuz","Ekibastuz","51.7300","75.3199","Kazakhstan","KZ","KAZ","Pavlodar","","127868","1398583266"
"Zyryanovsk","Zyryanovsk","49.7453","84.2548","Kazakhstan","KZ","KAZ","Shyghys Qazaqstan","","49658","1398361284"
"Komsomolets","Komsomolets","53.7506","62.0502","Kazakhstan","KZ","KAZ","Qostanay","","9838","1398254114"
"Baykonur","Baykonur","45.6914","63.2413","Kazakhstan","KZ","KAZ","Qyzylorda","","36175","1398535530"
"Erymentau","Erymentau","51.6303","73.1049","Kazakhstan","KZ","KAZ","Aqmola","","25141","1398103059"
"Qarazhal","Qarazhal","48.0253","70.7999","Kazakhstan","KZ","KAZ","Qaraghandy","","22170","1398149188"
"Tobol","Tobol","52.6980","62.5749","Kazakhstan","KZ","KAZ","Qostanay","","7155","1398858827"
"Shar","Shar","49.6003","81.0549","Kazakhstan","KZ","KAZ","Shyghys Qazaqstan","","9087","1398393299"
"Semey","Semey","50.4350","80.2750","Kazakhstan","KZ","KAZ","Shyghys Qazaqstan","","311353","1398405657"
"Boralday","Boralday","43.3341","76.8288","Kazakhstan","KZ","KAZ","Almaty","","20996","1398737190"
"Zhetiqara","Zhetiqara","52.1930","61.2399","Kazakhstan","KZ","KAZ","Qostanay","","46740","1398276170"
"Aqadyr","Aqadyr","48.2749","72.8599","Kazakhstan","KZ","KAZ","Qaraghandy","","9710","1398472084"
"Zharkent","Zharkent","44.1616","79.9801","Kazakhstan","KZ","KAZ","Almaty","","36496","1398507500"
"Qulsary","Qulsary","46.9833","54.0165","Kazakhstan","KZ","KAZ","Atyraū","","37103","1398141603"
"Balyqshy","Balyqshy","47.0666","51.8666","Kazakhstan","KZ","KAZ","Atyraū","","31624","1398354265"
"Atyrau","Atyrau","47.1127","51.9200","Kazakhstan","KZ","KAZ","Atyraū","admin","182753","1398169063"
"Shymkent","Shymkent","42.3200","69.5950","Kazakhstan","KZ","KAZ","","admin","465392","1398791401"
"Turkistan","Turkistan","43.3016","68.2549","Kazakhstan","KZ","KAZ","Ongtüstik Qazaqstan","admin","97360","1398398278"
"Xiangkhoang","Xiangkhoang","19.3337","103.3666","Laos","LA","LAO","Xiangkhouang","","5189","1418829021"
"Muang Phônsavan","Muang Phonsavan","19.4500","103.2167","Laos","LA","LAO","Xiangkhouang","admin","","1418378289"
"Vientiane","Vientiane","17.9667","102.6000","Laos","LA","LAO","Viangchan","primary","754000","1418732714"
"Ban Houayxay","Ban Houayxay","20.2775","100.4128","Laos","LA","LAO","Bokèo","admin","6347","1418944950"
"Muang Phôn-Hông","Muang Phon-Hong","18.4957","102.4142","Laos","LA","LAO","Viangchan","admin","","1418592644"
"Louang Namtha","Louang Namtha","20.9500","101.4167","Laos","LA","LAO","Louangnamtha","admin","3225","1418920136"
"Phongsali","Phongsali","21.6833","102.1000","Laos","LA","LAO","Phôngsali","admin","6000","1418524729"
"Thakhek","Thakhek","17.4112","104.8361","Laos","LA","LAO","Khammouan","admin","76928","1418367677"
"Muang Pakxan","Muang Pakxan","18.3826","103.6586","Laos","LA","LAO","Bolikhamxai","admin","","1418088090"
"Louangphrabang","Louangphrabang","19.8845","102.1416","Laos","LA","LAO","Louangphabang","admin","107142","1418530759"
"Xaignabouri","Xaignabouri","19.2505","101.7501","Laos","LA","LAO","Xaignabouli","admin","16200","1418760593"
"Savannakhet","Savannakhet","16.5376","104.7730","Laos","LA","LAO","Savannakhét","admin","84898","1418179232"
"Lamam","Lamam","15.4171","106.6946","Laos","LA","LAO","Xékong","admin","","1418159582"
"Pakxe","Pakxe","15.1221","105.8183","Laos","LA","LAO","Champasak","admin","102775","1418863956"
"Attapu","Attapu","14.8080","106.8390","Laos","LA","LAO","Attapu","admin","4297","1418894454"
"Xam Nua","Xam Nua","20.4167","104.0333","Laos","LA","LAO","Houaphan","admin","38992","1418975079"
"Muang Xai","Muang Xai","20.6923","101.9847","Laos","LA","LAO","Oudômxai","admin","","1418805827"
"Saravan","Saravan","15.7160","106.4270","Laos","LA","LAO","Salavan","","5521","1418448631"
"Champasak","Champasak","14.8833","105.8667","Laos","LA","LAO","Champasak","","12994","1418902447"
"Beirut","Beirut","33.8720","35.5097","Lebanon","LB","LBN","Beyrouth","primary","1846000","1422847713"
"Zahlé","Zahle","33.8501","35.9042","Lebanon","LB","LBN","Béqaa","admin","78145","1422031285"
"Baalbek","Baalbek","34.0058","36.2181","Lebanon","LB","LBN","Baalbek-Hermel","admin","","1422694451"
"B'abda","B'abda","33.8333","35.5333","Lebanon","LB","LBN","Mont-Liban","admin","9000","1422639397"
"Halba","Halba","34.5428","36.0797","Lebanon","LB","LBN","Aakkâr","admin","","1422962727"
"Saida","Saida","33.5630","35.3688","Lebanon","LB","LBN","Liban-Sud","admin","173894","1422897920"
"Nabatiye et Tahta","Nabatiye et Tahta","33.3833","35.4500","Lebanon","LB","LBN","Nabatîyé","admin","80000","1422269278"
"Trablous","Trablous","34.4200","35.8700","Lebanon","LB","LBN","Liban-Nord","admin","530000","1422886065"
"Castries","Castries","14.0020","-61.0000","Saint Lucia","LC","LCA","Castries","primary","37963","1662922505"
"Gamprin","Gamprin","47.2197","9.5113","Liechtenstein","LI","LIE","Gamprin","admin","","1438568521"
"Triesenberg","Triesenberg","47.1182","9.5444","Liechtenstein","LI","LIE","Triesenberg","admin","","1438813592"
"Schaan","Schaan","47.1661","9.5096","Liechtenstein","LI","LIE","Schaan","admin","","1438982330"
"Ruggell","Ruggell","47.2408","9.5247","Liechtenstein","LI","LIE","Ruggell","admin","","1438787609"
"Mauren","Mauren","47.2205","9.5426","Liechtenstein","LI","LIE","Mauren","admin","","1438767966"
"Eschen","Eschen","47.2109","9.5216","Liechtenstein","LI","LIE","Eschen","admin","","1438692471"
"Triesen","Triesen","47.1101","9.5240","Liechtenstein","LI","LIE","Triesen","admin","","1438826448"
"Balzers","Balzers","47.0667","9.5025","Liechtenstein","LI","LIE","Balzers","admin","","1438263000"
"Vaduz","Vaduz","47.1337","9.5167","Liechtenstein","LI","LIE","Vaduz","primary","36281","1438317747"
"Planken","Planken","47.1844","9.5436","Liechtenstein","LI","LIE","Planken","admin","","1438419168"
"Schellenberg","Schellenberg","47.2325","9.5463","Liechtenstein","LI","LIE","Schellenberg","admin","","1438649917"
"Colombo","Colombo","6.9320","79.8578","Sri Lanka","LK","LKA","Western","primary","217000","1144251314"
"Ratnapura","Ratnapura","6.6930","80.3860","Sri Lanka","LK","LKA","Sabaragamuwa","","47832","1144739208"
"Matara","Matara","5.9490","80.5428","Sri Lanka","LK","LKA","Southern","","68244","1144127163"
"Sri Jawewardenepura Kotte","Sri Jawewardenepura Kotte","6.9000","79.9500","Sri Lanka","LK","LKA","Western","primary","115826","1144239330"
"Moratuwa","Moratuwa","6.7804","79.8800","Sri Lanka","LK","LKA","Western","","200000","1144324309"
"Anuradhapura","Anuradhapura","8.3500","80.3833","Sri Lanka","LK","LKA","North Central","","118302","1144764835"
"Galle","Galle","6.0300","80.2400","Sri Lanka","LK","LKA","Southern","","99478","1144191486"
"Puttalan","Puttalan","8.0330","79.8260","Sri Lanka","LK","LKA","North Western","","45661","1144219740"
"Kandy","Kandy","7.2800","80.6700","Sri Lanka","LK","LKA","Central","","111701","1144308408"
"Badulla","Badulla","6.9837","81.0499","Sri Lanka","LK","LKA","Uva","","47587","1144962750"
"Trincomalee","Trincomalee","8.5690","81.2330","Sri Lanka","LK","LKA","Eastern","","108420","1144417074"
"Kilinochchi","Kilinochchi","9.4004","80.3999","Sri Lanka","LK","LKA","Northern","","103717","1144468936"
"Batticaloa","Batticaloa","7.7170","81.7000","Sri Lanka","LK","LKA","Eastern","","129222","1144464659"
"Jaffna","Jaffna","9.6750","80.0050","Sri Lanka","LK","LKA","Northern","","250000","1144005506"
"Bopolu","Bopolu","7.0667","-10.4875","Liberia","LR","LBR","Gbarpolu","admin","","1430414456"
"Voinjama","Voinjama","8.4167","-9.7500","Liberia","LR","LBR","Lofa","admin","26594","1430858471"
"Robertsport","Robertsport","6.7533","-11.3686","Liberia","LR","LBR","Grand Cape Mount","admin","11969","1430885010"
"Buchanan","Buchanan","5.9161","-10.0525","Liberia","LR","LBR","Grand Bassa","","48315","1430177860"
"Monrovia","Monrovia","6.3106","-10.8048","Liberia","LR","LBR","Montserrado","primary","1041000","1430477826"
"Tubmanburg","Tubmanburg","6.8706","-10.8211","Liberia","LR","LBR","Bomi","admin","","1430503114"
"Buchanan","Buchanan","5.8811","-10.0447","Liberia","LR","LBR","Grand Bassa","admin","","1430478203"
"Zwedru","Zwedru","6.0704","-8.1300","Liberia","LR","LBR","Grand Gedeh","admin","25678","1430130578"
"Barclayville","Barclayville","4.8000","-8.1667","Liberia","LR","LBR","Grand Kru","admin","2733","1430129873"
"Rivercess","Rivercess","5.4650","-9.5780","Liberia","LR","LBR","River Cess","admin","2578","1430708587"
"Fish Town","Fish Town","5.1974","-7.8758","Liberia","LR","LBR","River Gee","admin","","1430204172"
"Gbarnga","Gbarnga","7.0104","-9.4900","Liberia","LR","LBR","Bong","admin","45835","1430269323"
"Kakata","Kakata","6.5260","-10.3490","Liberia","LR","LBR","Margibi","admin","33945","1430656307"
"Sanniquellie","Sanniquellie","7.3710","-8.6850","Liberia","LR","LBR","Nimba","admin","11415","1430949102"
"Greenville","Greenville","5.0111","-9.0388","Liberia","LR","LBR","Sinoe","admin","10374","1430362799"
"Bensonville","Bensonville","6.4333","-10.6000","Liberia","LR","LBR","Montserrado","admin","4089","1430964557"
"Harper","Harper","4.3754","-7.7170","Liberia","LR","LBR","Maryland","admin","32661","1430540258"
"Maseru","Maseru","-29.3167","27.4833","Lesotho","LS","LSO","Maseru","primary","361324","1426977668"
"Mokhotlong","Mokhotlong","-29.2910","29.0780","Lesotho","LS","LSO","Mokhotlong","admin","8809","1426785819"
"Thaba-Tseka","Thaba-Tseka","-29.5220","28.6084","Lesotho","LS","LSO","Thaba-Tseka","admin","","1426611266"
"Moyeni","Moyeni","-30.4110","27.7160","Lesotho","LS","LSO","Quthing","admin","24130","1426618526"
"Qacha’s Nek","Qacha's Nek","-30.1154","28.6894","Lesotho","LS","LSO","Qacha’s Nek","admin","","1426361264"
"Mafetang","Mafetang","-29.8166","27.2500","Lesotho","LS","LSO","Mafeteng","admin","57059","1426506047"
"Hlotse","Hlotse","-28.8780","28.0560","Lesotho","LS","LSO","Leribe","admin","47675","1426721246"
"Teyateyaneng","Teyateyaneng","-29.1530","27.7530","Lesotho","LS","LSO","Berea","admin","5115","1426159118"
"Mohales Hoek","Mohales Hoek","-30.1590","27.4800","Lesotho","LS","LSO","Mohale’s Hoek","admin","24992","1426343192"
"Butha-Buthe","Butha-Buthe","-28.7500","28.2500","Lesotho","LS","LSO","Butha-Buthe","admin","16330","1426574356"
"Klaipėda","Klaipeda","55.7204","21.1199","Lithuania","LT","LTU","Klaipėdos Miestas","admin","192307","1440897790"
"Palanga","Palanga","55.9203","21.0710","Lithuania","LT","LTU","Palangos Miestas","admin","","1440868798"
"Nida","Nida","55.3086","20.9965","Lithuania","LT","LTU","Neringa","admin","","1440271703"
"Kretinga","Kretinga","55.8888","21.2445","Lithuania","LT","LTU","Kretinga","admin","","1440720895"
"Tauragė","Taurage","55.2522","22.2897","Lithuania","LT","LTU","Tauragė","admin","","1440115384"
"Šilutė","Silute","55.3453","21.4733","Lithuania","LT","LTU","Šilutė","admin","","1440568024"
"Rietavas","Rietavas","55.7271","21.9234","Lithuania","LT","LTU","Rietavo","admin","","1440780088"
"Plungė","Plunge","55.9077","21.8456","Lithuania","LT","LTU","Plungė","admin","","1440542185"
"Šilalė","Silale","55.4898","22.1869","Lithuania","LT","LTU","Šilalė","admin","","1440106904"
"Visaginas","Visaginas","55.5968","26.4398","Lithuania","LT","LTU","Visaginas","admin","","1440984232"
"Zarasai","Zarasai","55.7322","26.2512","Lithuania","LT","LTU","Zarasai","admin","","1440450872"
"Ignalina","Ignalina","55.3406","26.1605","Lithuania","LT","LTU","Ignalina","admin","","1440789779"
"Utena","Utena","55.4976","25.5992","Lithuania","LT","LTU","Utena","admin","","1440298742"
"Švenčionys","Svencionys","55.1330","26.1595","Lithuania","LT","LTU","Švenčionys","admin","","1440170338"
"Rokiškis","Rokiskis","55.9587","25.5947","Lithuania","LT","LTU","Rokiškis","admin","","1440918695"
"Molėtai","Moletai","55.2247","25.4169","Lithuania","LT","LTU","Molėtai","admin","","1440110307"
"Šalčininkai","Salcininkai","54.3086","25.3868","Lithuania","LT","LTU","Šalčininkai","admin","","1440401402"
"Vilnius","Vilnius","54.6834","25.3166","Lithuania","LT","LTU","Vilniaus Miestas","primary","542366","1440887149"
"Kupiškis","Kupiskis","55.8401","24.9803","Lithuania","LT","LTU","Kupiškis","admin","","1440122297"
"Trakai","Trakai","54.6399","24.9360","Lithuania","LT","LTU","Trakai","admin","","1440324561"
"Biržai","Birzai","56.1986","24.7521","Lithuania","LT","LTU","Biržai","admin","","1440132489"
"Anykščiai","Anyksciai","55.5246","25.1066","Lithuania","LT","LTU","Anykščiai","admin","","1440174702"
"Telšiai","Telsiai","55.9831","22.2343","Lithuania","LT","LTU","Telšiai","admin","","1440908000"
"Kelmė","Kelme","55.6301","22.9349","Lithuania","LT","LTU","Kelmė","admin","","1440476751"
"Marijampolė","Marijampole","54.5599","23.3541","Lithuania","LT","LTU","Marijampolė","admin","","1440180524"
"Lazdijai","Lazdijai","54.2333","23.5147","Lithuania","LT","LTU","Lazdijai","admin","","1440584882"
"Šakiai","Sakiai","54.9534","23.0478","Lithuania","LT","LTU","Šakiai","admin","","1440362808"
"Radviliškis","Radviliskis","55.8111","23.5411","Lithuania","LT","LTU","Radviliškis","admin","","1440712589"
"Šiauliai","Siauliai","55.9386","23.3250","Lithuania","LT","LTU","Šiaulių Miestas","admin","133528","1440593416"
"Birštonas","Birstonas","54.6048","24.0311","Lithuania","LT","LTU","Birštono","admin","","1440134144"
"Druskininkai","Druskininkai","54.0157","23.9870","Lithuania","LT","LTU","Druskininkai","admin","","1440489111"
"Kėdainiai","Kedainiai","55.2878","23.9727","Lithuania","LT","LTU","Kėdainiai","admin","","1440351434"
"Alytus","Alytus","54.3964","24.0414","Lithuania","LT","LTU","Alytaus Miestas","admin","","1440273296"
"Prienai","Prienai","54.6360","23.9458","Lithuania","LT","LTU","Prienai","admin","","1440412268"
"Elektrėnai","Elektrenai","54.7863","24.6626","Lithuania","LT","LTU","Elektrénai","admin","","1440272776"
"Kaunas","Kaunas","54.9504","23.8800","Lithuania","LT","LTU","Kauno Miestas","admin","374643","1440302852"
"Jonava","Jonava","55.0801","24.2754","Lithuania","LT","LTU","Jonava","admin","","1440040612"
"Kaišiadorys","Kaisiadorys","54.8653","24.4682","Lithuania","LT","LTU","Kaišiadorys","admin","","1440257941"
"Panevežys","Panevezys","55.7400","24.3700","Lithuania","LT","LTU","Panevėžio Miestas","admin","127405","1440120065"
"Joniškis","Joniskis","56.2394","23.6154","Lithuania","LT","LTU","Joniškis","admin","","1440592411"
"Kazlų Rūda","Kazlu Ruda","54.7497","23.4950","Lithuania","LT","LTU","Kazlų Rūdos","admin","","1440371651"
"Vilkaviškis","Vilkaviskis","54.6480","23.0305","Lithuania","LT","LTU","Vilkaviškis","admin","","1440557692"
"Pasvalys","Pasvalys","56.0625","24.3997","Lithuania","LT","LTU","Pasvalys","admin","","1440957197"
"Pakruojis","Pakruojis","55.9789","23.8551","Lithuania","LT","LTU","Pakruojis","admin","","1440570493"
"Raseiniai","Raseiniai","55.3797","23.1239","Lithuania","LT","LTU","Raseiniai","admin","","1440481520"
"Pagėgiai","Pagegiai","55.1379","21.9138","Lithuania","LT","LTU","Pagégiai","admin","","1440724133"
"Jurbarkas","Jurbarkas","55.0756","22.7642","Lithuania","LT","LTU","Jurbarkas","admin","","1440845969"
"Kalvarija","Kalvarija","54.4172","23.2283","Lithuania","LT","LTU","Kalvarijos","admin","","1440799248"
"Širvintos","Sirvintos","55.0440","24.9545","Lithuania","LT","LTU","Širvintos","admin","","1440054141"
"Skuodas","Skuodas","56.2706","21.5321","Lithuania","LT","LTU","Skuodas","admin","","1440264405"
"Mažeikiai","Mazeikiai","56.3122","22.3265","Lithuania","LT","LTU","Mažeikiai","admin","","1440746512"
"Akmenė","Akmene","56.2500","22.7500","Lithuania","LT","LTU","Akmenė","admin","","1440240618"
"Ukmergė","Ukmerge","55.2494","24.7636","Lithuania","LT","LTU","Ukmergė","admin","","1440784663"
"Varėna","Varena","54.2155","24.5754","Lithuania","LT","LTU","Varėna","admin","","1440933251"
"Capellen","Capellen","49.6450","5.9908","Luxembourg","LU","LUX","Capellen","admin","","1442533571"
"Esch-sur-Alzette","Esch-sur-Alzette","49.4958","5.9806","Luxembourg","LU","LUX","Esch-sur-Alzette","admin","","1442192663"
"Remich","Remich","49.5450","6.3669","Luxembourg","LU","LUX","Remich","admin","","1442971283"
"Echternach","Echternach","49.8056","6.4222","Luxembourg","LU","LUX","Echternach","admin","","1442794725"
"Mersch","Mersch","49.7489","6.1061","Luxembourg","LU","LUX","Mersch","admin","","1442283324"
"Redange-sur-Attert","Redange-sur-Attert","49.7656","5.8908","Luxembourg","LU","LUX","Redange","admin","","1442099691"
"Vianden","Vianden","49.9350","6.2089","Luxembourg","LU","LUX","Vianden","admin","","1442979391"
"Wiltz","Wiltz","49.9689","5.9319","Luxembourg","LU","LUX","Wiltz","admin","","1442345477"
"Clervaux","Clervaux","50.0547","6.0314","Luxembourg","LU","LUX","Clervaux","admin","","1442118762"
"Diekirch","Diekirch","49.8833","6.1667","Luxembourg","LU","LUX","Diekirch","admin","6242","1442382721"
"Grevenmacher","Grevenmacher","49.7000","6.3333","Luxembourg","LU","LUX","Grevenmacher","admin","3958","1442392954"
"Luxembourg","Luxembourg","49.6117","6.1300","Luxembourg","LU","LUX","Luxembourg","primary","107260","1442262731"
"Auce","Auce","56.4611","22.9028","Latvia","LV","LVA","Auces Novads","admin","","1428962592"
"Daugavpils","Daugavpils","55.8800","26.5100","Latvia","LV","LVA","Daugavpils Novads","admin","111564","1428924928"
"Jēkabpils","Jekabpils","56.4833","25.8500","Latvia","LV","LVA","Jēkabpils Novads","admin","","1428885452"
"Salacgrīva","Salacgriva","57.7531","24.3590","Latvia","LV","LVA","Salacgrīvas Novads","admin","","1428301933"
"Ventspils","Ventspils","57.3899","21.5606","Latvia","LV","LVA","Ventspils","admin","42884","1428112098"
"Dundaga","Dundaga","57.5050","22.3504","Latvia","LV","LVA","Dundagas Novads","admin","","1428711022"
"Jaunjelgava","Jaunjelgava","56.6132","25.0832","Latvia","LV","LVA","Jaunjelgavas Novads","admin","","1428755180"
"Nereta","Nereta","56.2044","25.3077","Latvia","LV","LVA","Neretas Novads","admin","","1428242925"
"Alsunga","Alsunga","56.9801","21.5640","Latvia","LV","LVA","Alsungas Novads","admin","","1428710208"
"Kuldīga","Kuldiga","56.9690","21.9680","Latvia","LV","LVA","Kuldīgas Novads","admin","","1428739306"
"Pāvilosta","Pavilosta","56.8898","21.1817","Latvia","LV","LVA","Pāvilostas Novads","admin","","1428955629"
"Piņķi","Pinki","56.9419","23.9137","Latvia","LV","LVA","Babītes Novads","admin","","1428171019"
"Ādaži","Adazi","57.0705","24.3371","Latvia","LV","LVA","Ādažu Novads","admin","","1428843734"
"Kandava","Kandava","57.0389","22.7724","Latvia","LV","LVA","Kandavas Novads","admin","","1428964284"
"Roja","Roja","57.5015","22.8088","Latvia","LV","LVA","Rojas Novads","admin","","1428577367"
"Carnikava","Carnikava","57.1293","24.2842","Latvia","LV","LVA","Carnikavas Novads","admin","","1428447982"
"Garkalne","Garkalne","57.0449","24.4195","Latvia","LV","LVA","Garkalnes Novads","admin","","1428447019"
"Saulkrasti","Saulkrasti","57.2599","24.4189","Latvia","LV","LVA","Saulkrastu Novads","admin","","1428934591"
"Smārde","Smarde","56.9533","23.3387","Latvia","LV","LVA","Engures Novads","admin","","1428580716"
"Mērsrags","Mersrags","57.3364","23.1235","Latvia","LV","LVA","Mērsraga Novads","admin","","1428954276"
"Talsi","Talsi","57.2465","22.5876","Latvia","LV","LVA","Talsu Novads","admin","","1428411666"
"Jūrmala","Jurmala","56.9567","23.7233","Latvia","LV","LVA","Jūrmala","admin","","1428952300"
"Mārupe","Marupe","56.9032","24.0467","Latvia","LV","LVA","Mārupes Novads","admin","","1428162714"
"Ulbroka","Ulbroka","56.9363","24.3039","Latvia","LV","LVA","Stopiņu Novads","admin","","1428511061"
"Zilupe","Zilupe","56.3860","28.1218","Latvia","LV","LVA","Zilupes Novads","admin","","1428917349"
"Ludza","Ludza","56.5396","27.7189","Latvia","LV","LVA","Ludzas Novads","admin","","1428976928"
"Dagda","Dagda","56.0961","27.5328","Latvia","LV","LVA","Dagdas Novads","admin","","1428145757"
"Baltinava","Baltinava","56.9439","27.6440","Latvia","LV","LVA","Baltinavas Novads","admin","","1428769707"
"Cibla","Cibla","56.5498","27.8837","Latvia","LV","LVA","Ciblas Novads","admin","","1428931914"
"Kārsava","Karsava","56.7874","27.6732","Latvia","LV","LVA","Kārsavas Novads","admin","","1428849607"
"Riga","Riga","56.9500","24.1000","Latvia","LV","LVA","Rīga","primary","742572","1428586192"
"Krāslava","Kraslava","55.8969","27.1720","Latvia","LV","LVA","Krāslavas Novads","admin","","1428739484"
"Limbaži","Limbazi","57.5130","24.7240","Latvia","LV","LVA","Limbažu Novads","admin","","1428920312"
"Preiļi","Preili","56.2940","26.7248","Latvia","LV","LVA","Preiļu Novads","admin","","1428460035"
"Vecvārkava","Vecvarkava","56.1984","26.5081","Latvia","LV","LVA","Vārkavas Novads","admin","","1428075811"
"Ilūkste","Ilukste","55.9779","26.2978","Latvia","LV","LVA","Ilūkstes Novads","admin","","1428832647"
"Nīca","Nica","56.3456","21.0646","Latvia","LV","LVA","Nīcas Novads","admin","","1428762389"
"Bauska","Bauska","56.4079","24.1944","Latvia","LV","LVA","Bauskas Novads","admin","","1428015452"
"Viļaka","Vilaka","57.1843","27.6719","Latvia","LV","LVA","Viļakas Novads","admin","","1428268339"
"Līvāni","Livani","56.3567","26.1761","Latvia","LV","LVA","Līvānu Novads","admin","","1428769984"
"Alūksne","Aluksne","57.4216","27.0466","Latvia","LV","LVA","Alūksnes Novads","admin","","1428873095"
"Jaunpils","Jaunpils","56.7314","23.0125","Latvia","LV","LVA","Jaunpils Novads","admin","","1428617492"
"Brocēni","Broceni","56.6789","22.5694","Latvia","LV","LVA","Brocēnu Novads","admin","","1428026538"
"Rugāji","Rugaji","57.0033","27.1337","Latvia","LV","LVA","Rugāju Novads","admin","","1428746884"
"Riebiņi","Riebini","56.3403","26.7999","Latvia","LV","LVA","Riebiņu Novads","admin","","1428663476"
"Viļāni","Vilani","56.5505","26.9298","Latvia","LV","LVA","Viļānu Novads","admin","","1428636034"
"Varakļāni","Varaklani","56.6091","26.7547","Latvia","LV","LVA","Varakļānu Novads","admin","","1428435689"
"Ape","Ape","57.5394","26.6940","Latvia","LV","LVA","Apes Novads","admin","","1428396055"
"Madona","Madona","56.8510","26.2184","Latvia","LV","LVA","Madonas Novads","admin","","1428548117"
"Jaunpiebalga","Jaunpiebalga","57.1775","26.0284","Latvia","LV","LVA","Jaunpiebalgas Novads","admin","","1428003359"
"Lubāna","Lubana","56.9043","26.7161","Latvia","LV","LVA","Lubānas Novads","admin","","1428963436"
"Gulbene","Gulbene","57.1734","26.7527","Latvia","LV","LVA","Gulbenes Novads","admin","","1428888445"
"Balvi","Balvi","57.1287","27.2700","Latvia","LV","LVA","Balvu Novads","admin","","1428606162"
"Aknīste","Akniste","56.1615","25.7482","Latvia","LV","LVA","Aknīstes Novads","admin","","1428363907"
"Viesīte","Viesite","56.3465","25.5581","Latvia","LV","LVA","Viesītes Novads","admin","","1428998036"
"Cesvaine","Cesvaine","56.9675","26.3076","Latvia","LV","LVA","Cesvaines Novads","admin","","1428611306"
"Ķegums","Kegums","56.7455","24.7250","Latvia","LV","LVA","Ķeguma Novads","admin","","1428359846"
"Vecpiebalga","Vecpiebalga","57.0618","25.8179","Latvia","LV","LVA","Vecpiebalgas Novads","admin","","1428633596"
"Smiltene","Smiltene","57.4242","25.9017","Latvia","LV","LVA","Smiltenes Novads","admin","","1428035157"
"Drabeši","Drabesi","57.2433","25.2803","Latvia","LV","LVA","Amatas Novads","admin","","1428886151"
"Cēsis","Cesis","57.3091","25.2761","Latvia","LV","LVA","Cēsu Novads","admin","","1428840269"
"Ērgļi","Ergli","56.8988","25.6429","Latvia","LV","LVA","Ērgļu Novads","admin","","1428672513"
"Valka","Valka","57.7767","26.0118","Latvia","LV","LVA","Valkas Novads","admin","","1428763918"
"Grobiņa","Grobina","56.5358","21.1747","Latvia","LV","LVA","Grobiņas Novads","admin","","1428780265"
"Strenči","Strenci","57.6269","25.6919","Latvia","LV","LVA","Strenču Novads","admin","","1428746601"
"Mūrmuiža","Murmuiza","57.4731","25.4917","Latvia","LV","LVA","Beverīnas Novads","admin","","1428958481"
"Mazsalaca","Mazsalaca","57.8619","25.0547","Latvia","LV","LVA","Mazsalacas Novads","admin","","1428775090"
"Aloja","Aloja","57.7672","24.8774","Latvia","LV","LVA","Alojas Novads","admin","","1428805342"
"Burtnieki","Burtnieki","57.6949","25.2750","Latvia","LV","LVA","Burtnieku Novads","admin","","1428423415"
"Koknese","Koknese","56.6516","25.4364","Latvia","LV","LVA","Kokneses Novads","admin","","1428876472"
"Aizkraukle","Aizkraukle","56.6029","25.2636","Latvia","LV","LVA","Aizkraukles Novads","admin","","1428407271"
"Skrīveri","Skriveri","56.6485","25.1195","Latvia","LV","LVA","Skrīveru Novads","admin","","1428849429"
"Baldone","Baldone","56.7445","24.4008","Latvia","LV","LVA","Baldones Novads","admin","","1428735750"
"Vecumnieki","Vecumnieki","56.6061","24.5223","Latvia","LV","LVA","Vecumnieku Novads","admin","","1428888119"
"Sala","Sala","56.5047","25.7618","Latvia","LV","LVA","Salas Novads","admin","","1428593161"
"Pļaviņas","Plavinas","56.6177","25.7194","Latvia","LV","LVA","Pļaviņu Novads","admin","","1428245037"
"Liepaga","Liepaga","56.5100","21.0100","Latvia","LV","LVA","Liepāja","admin","85132","1428511842"
"Rūjiena","Rujiena","57.8961","25.3342","Latvia","LV","LVA","Rūjienas Novads","admin","","1428387860"
"Naukšēni","Naukseni","57.8842","25.4580","Latvia","LV","LVA","Naukšēnu Novads","admin","","1428372673"
"Lieģi","Liegi","56.5797","21.3338","Latvia","LV","LVA","Durbes Novads","admin","","1428643853"
"Rauna","Rauna","57.3337","25.6085","Latvia","LV","LVA","Raunas Novads","admin","","1428987270"
"Aizpute","Aizpute","56.7211","21.6016","Latvia","LV","LVA","Aizputes Novads","admin","","1428860274"
"Kocēni","Koceni","57.5198","25.3404","Latvia","LV","LVA","Kocēnu Novads","admin","","1428151958"
"Valmiera","Valmiera","57.5387","25.4257","Latvia","LV","LVA","Valmiera","admin","","1428524787"
"Sigulda","Sigulda","57.1538","24.8595","Latvia","LV","LVA","Siguldas Novads","admin","","1428703594"
"Priekuļi","Priekuli","57.3115","25.3571","Latvia","LV","LVA","Priekuļu Novads","admin","","1428165145"
"Ogre","Ogre","56.8113","24.6113","Latvia","LV","LVA","Ogres Novads","admin","","1428832851"
"Ragana","Ragana","57.1821","24.7056","Latvia","LV","LVA","Krimuldas Novads","admin","","1428990628"
"Loja","Loja","57.1534","24.6433","Latvia","LV","LVA","Sējas Novads","admin","","1428831058"
"Ropaži","Ropazi","56.9747","24.6329","Latvia","LV","LVA","Ropažu Novads","admin","","1428220999"
"Priekule","Priekule","56.4458","21.5939","Latvia","LV","LVA","Priekules Novads","admin","","1428340962"
"Iecava","Iecava","56.5977","24.2076","Latvia","LV","LVA","Iecavas Novads","admin","","1428743931"
"Rucava","Rucava","56.1640","21.1627","Latvia","LV","LVA","Rucavas Novads","admin","","1428020890"
"Pilsrundāle","Pilsrundale","56.4181","24.0162","Latvia","LV","LVA","Rundāles Novads","admin","","1428889985"
"Salaspils","Salaspils","56.8610","24.3498","Latvia","LV","LVA","Salaspils Novads","admin","","1428270898"
"Ikšķile","Ikskile","56.8340","24.4968","Latvia","LV","LVA","Ikšķiles Novads","admin","","1428284061"
"Lielvārde","Lielvarde","56.7213","24.8062","Latvia","LV","LVA","Lielvārdes Novads","admin","","1428614074"
"Inčukalns","Incukalns","57.0987","24.6863","Latvia","LV","LVA","Inčukalna Novads","admin","","1428675819"
"Mālpils","Malpils","57.0101","24.9578","Latvia","LV","LVA","Mālpils Novads","admin","","1428737728"
"Olaine","Olaine","56.7947","23.9358","Latvia","LV","LVA","Olaines Novads","admin","","1428220700"
"Ķekava","Kekava","56.8296","24.2318","Latvia","LV","LVA","Ķekavas Novads","admin","","1428331173"
"Līgatne","Ligatne","57.2379","25.0436","Latvia","LV","LVA","Līgatnes Novads","admin","","1428643118"
"Stalbe","Stalbe","57.3708","25.0324","Latvia","LV","LVA","Pārgaujas Novads","admin","","1428014091"
"Jelgava","Jelgava","56.6527","23.7128","Latvia","LV","LVA","Jelgavas Novads","admin","67207","1428370571"
"Skrunda","Skrunda","56.6775","22.0165","Latvia","LV","LVA","Skrundas Novads","admin","","1428371210"
"Vaiņode","Vainode","56.4185","21.8541","Latvia","LV","LVA","Vaiņodes Novads","admin","","1428647067"
"Saldus","Saldus","56.6666","22.4935","Latvia","LV","LVA","Saldus Novads","admin","","1428774997"
"Tukums","Tukums","56.9676","23.1555","Latvia","LV","LVA","Tukuma Novads","admin","","1428304262"
"Tērvete","Tervete","56.4798","23.3902","Latvia","LV","LVA","Tērvetes Novads","admin","","1428176770"
"Dobele","Dobele","56.6237","23.2751","Latvia","LV","LVA","Dobeles Novads","admin","","1428641580"
"Rēzekne","Rezekne","56.5000","27.3166","Latvia","LV","LVA","Rēzeknes Novads","admin","38340","1428895373"
"Aglona","Aglona","56.1327","27.0068","Latvia","LV","LVA","Aglonas Novads","admin","","1428424524"
"Ozolnieki","Ozolnieki","56.6899","23.7761","Latvia","LV","LVA","Ozolnieku Novads","admin","","1428973455"
"Tripoli","Tripoli","32.8925","13.1800","Libya","LY","LBY","Ţarābulus","primary","2189000","1434201852"
"Al ‘Azīzīyah","Al `Aziziyah","32.5319","13.0175","Libya","LY","LBY","Al Jafārah","admin","","1434450111"
"Zuwarah","Zuwarah","32.9344","12.0791","Libya","LY","LBY","An Nuqāţ al Khams","admin","180310","1434206265"
"Al Khums","Al Khums","32.6604","14.2600","Libya","LY","LBY","Al Marqab","admin","201943","1434348717"
"As Sidr","As Sidr","30.6704","18.2666","Libya","LY","LBY","","","50","1434673703"
"Ghadamis","Ghadamis","30.1333","9.5000","Libya","LY","LBY","Nālūt","","6623","1434013321"
"Dirj","Dirj","30.1679","10.4567","Libya","LY","LBY","Nālūt","","931","1434822177"
"Nalut","Nalut","31.8804","10.9700","Libya","LY","LBY","Nālūt","admin","66609","1434550258"
"Umm al Abid","Umm al Abid","27.5170","15.0333","Libya","LY","LBY","Wādī ash Shāţi’","","300","1434373121"
"Sabha","Sabha","27.0333","14.4333","Libya","LY","LBY","Sabhā","admin","100249","1434044820"
"Birak","Birak","27.5333","14.2834","Libya","LY","LBY","Wādī ash Shāţi’","","45421","1434095842"
"Idrī","Idri","27.4471","13.0517","Libya","LY","LBY","Wādī ash Shāţi’","admin","","1434443323"
"Zillah","Zillah","28.5504","17.5834","Libya","LY","LBY","Al Jufrah","","10","1434245699"
"Hun","Hun","29.1167","15.9333","Libya","LY","LBY","Al Jufrah","admin","18878","1434396501"
"Az Zawiyah","Az Zawiyah","32.7604","12.7200","Libya","LY","LBY","Az Zāwiyah","admin","200000","1434421178"
"Awjilah","Awjilah","29.1080","21.2869","Libya","LY","LBY","Al Wāḩāt","","6610","1434938770"
"El Agheila","El Agheila","30.2570","19.2000","Libya","LY","LBY","Al Wāḩāt","","100","1434822941"
"Maradah","Maradah","29.2337","19.2166","Libya","LY","LBY","Al Wāḩāt","","2500","1434000794"
"Ajdabiya","Ajdabiya","30.7700","20.2200","Libya","LY","LBY","Al Wāḩāt","admin","143833","1434401280"
"Darnah","Darnah","32.7648","22.6391","Libya","LY","LBY","Darnah","admin","127974","1434920152"
"Al Jaghbub","Al Jaghbub","29.7504","24.5166","Libya","LY","LBY","Al Buţnān","","1744","1434128425"
"Mizdah","Mizdah","31.4337","12.9833","Libya","LY","LBY","Al Jabal al Gharbī","","26107","1434622990"
"Gharyan","Gharyan","32.1704","13.0200","Libya","LY","LBY","Al Jabal al Gharbī","admin","146810","1434507846"
"Tubruq","Tubruq","32.0800","23.9600","Libya","LY","LBY","Al Buţnān","admin","263527","1434068493"
"Shahhat","Shahhat","32.8281","21.8622","Libya","LY","LBY","Al Jabal al Akhḑar","","45000","1434402597"
"Tajarhi","Tajarhi","24.3704","14.4708","Libya","LY","LBY","Murzuq","","1500","1434443909"
"Al Bayda","Al Bayda","32.7604","21.6200","Libya","LY","LBY","Al Jabal al Akhḑar","admin","1794","1434263017"
"Ghat","Ghat","24.9647","10.1728","Libya","LY","LBY","Ghāt","admin","24347","1434971028"
"Tmassah","Tmassah","26.3666","15.8000","Libya","LY","LBY","Murzuq","","500","1434333715"
"Marzuq","Marzuq","25.9044","13.8972","Libya","LY","LBY","Murzuq","admin","55071","1434910333"
"Al Marj","Al Marj","32.5005","20.8300","Libya","LY","LBY","Al Marj","admin","169540","1434742923"
"Surt","Surt","31.2100","16.5900","Libya","LY","LBY","Surt","admin","128123","1434563640"
"Bani Walid","Bani Walid","31.7704","13.9900","Libya","LY","LBY","Mişrātah","","65392","1434398590"
"Awbārī","Awbari","26.5903","12.7751","Libya","LY","LBY","Wādī al Ḩayāt","admin","","1434431378"
"Al Jawf","Al Jawf","24.2000","23.2900","Libya","LY","LBY","Al Kufrah","","24132","1434996940"
"Al Kufrah","Al Kufrah","24.1667","23.2696","Libya","LY","LBY","Al Kufrah","admin","","1434510625"
"Qaminis","Qaminis","31.6606","20.0155","Libya","LY","LBY","Banghāzī","","5348","1434752325"
"Banghazi","Banghazi","32.1167","20.0667","Libya","LY","LBY","Banghāzī","admin","1180000","1434915572"
"Misratah","Misratah","32.3800","15.1000","Libya","LY","LBY","Mişrātah","admin","386120","1434518407"
"Kenitra","Kenitra","34.2704","-6.5800","Morocco","MA","MAR","Rabat-Salé-Kénitra","","551786","1504534876"
"Goulimine","Goulimine","28.9800","-10.0700","Morocco","MA","MAR","Guelmim-Oued Noun","admin","115267","1504110861"
"Fez","Fez","34.0546","-5.0004","Morocco","MA","MAR","Fès-Meknès","admin","1002000","1504861997"
"Casablanca","Casablanca","33.6000","-7.6164","Morocco","MA","MAR","Casablanca-Settat","admin","3181000","1504175315"
"Agadir","Agadir","30.4400","-9.6200","Morocco","MA","MAR","Souss-Massa","admin","825467","1504116858"
"Béni Mellal","Beni Mellal","32.3373","-6.3498","Morocco","MA","MAR","Béni Mellal-Khénifra","admin","","1504131639"
"Tangier","Tangier","35.7473","-5.8327","Morocco","MA","MAR","Tanger-Tétouan-Al Hoceïma","admin","750060","1504861504"
"Settat","Settat","33.0104","-7.6200","Morocco","MA","MAR","Casablanca-Settat","","161748","1504720478"
"Oujda","Oujda","34.6900","-1.9100","Morocco","MA","MAR","Oriental","admin","409391","1504891036"
"Meknes","Meknes","33.9004","-5.5600","Morocco","MA","MAR","Fès-Meknès","","697628","1504333193"
"Rabat","Rabat","34.0253","-6.8361","Morocco","MA","MAR","Rabat-Salé-Kénitra","primary","1705000","1504023252"
"Marrakesh","Marrakesh","31.6300","-8.0000","Morocco","MA","MAR","Marrakech-Safi","admin","872000","1504172585"
"El Jadida","El Jadida","33.2604","-8.5100","Morocco","MA","MAR","Casablanca-Settat","","180470","1504964063"
"Er Rachidia","Er Rachidia","31.9404","-4.4500","Morocco","MA","MAR","Drâa-Tafilalet","","228489","1504005759"
"Tan Tan","Tan Tan","28.4304","-11.1000","Morocco","MA","MAR","Guelmim-Oued Noun","","64868","1504164174"
"Taza","Taza","34.2204","-4.0200","Morocco","MA","MAR","Fès-Meknès","","199633","1504405154"
"Larache","Larache","35.2004","-6.1600","Morocco","MA","MAR","Tanger-Tétouan-Al Hoceïma","","120082","1504637172"
"Ksar El Kebir","Ksar El Kebir","35.0204","-5.9100","Morocco","MA","MAR","Tanger-Tétouan-Al Hoceïma","","306600","1504230428"
"Safi","Safi","32.3200","-9.2400","Morocco","MA","MAR","Marrakech-Safi","","353476","1504000717"
"Tiznit","Tiznit","29.7104","-9.7400","Morocco","MA","MAR","Souss-Massa","","57705","1504399838"
"Ouezzane","Ouezzane","34.8103","-5.5700","Morocco","MA","MAR","Tanger-Tétouan-Al Hoceïma","","69658","1504736892"
"Monaco","Monaco","43.7396","7.4069","Monaco","MC","MCO","","primary","36371","1492854256"
"Leova","Leova","46.4823","28.2530","Moldova","MD","MDA","Leova","admin","","1498085636"
"Rezina","Rezina","47.7493","28.9658","Moldova","MD","MDA","Rezina","admin","","1498876065"
"Căuşeni","Causeni","46.6367","29.4111","Moldova","MD","MDA","Căuşeni","admin","","1498826686"
"Rîşcani","Riscani","47.9479","27.5638","Moldova","MD","MDA","Rîşcani","admin","","1498650340"
"Sîngerei","Singerei","47.6363","28.1430","Moldova","MD","MDA","Sîngerei","admin","","1498521430"
"Făleşti","Falesti","47.5767","27.7126","Moldova","MD","MDA","Făleşti","admin","","1498180648"
"Floreşti","Floresti","47.8914","28.2931","Moldova","MD","MDA","Floreşti","admin","","1498297203"
"Şoldăneşti","Soldanesti","47.8161","28.7972","Moldova","MD","MDA","Şoldăneşti","admin","","1498087659"
"Ştefan Vodă","Stefan Voda","46.5129","29.6619","Moldova","MD","MDA","Ştefan-Vodă","admin","","1498766864"
"Orhei","Orhei","47.3849","28.8245","Moldova","MD","MDA","Orhei","admin","","1498680500"
"Comrat","Comrat","46.2946","28.6565","Moldova","MD","MDA","Găgăuzia","admin","","1498677351"
"Cimişlia","Cimislia","46.5268","28.7644","Moldova","MD","MDA","Cimişlia","admin","","1498766980"
"Cantemir","Cantemir","46.2774","28.2027","Moldova","MD","MDA","Cantemir","admin","","1498973808"
"Basarabeasca","Basarabeasca","46.3317","28.9636","Moldova","MD","MDA","Basarabeasca","admin","","1498894118"
"Edineţ","Edinet","48.1721","27.3034","Moldova","MD","MDA","Edineţ","admin","","1498114952"
"Ocniţa","Ocnita","48.3827","27.4381","Moldova","MD","MDA","Ocniţa","admin","","1498334915"
"Drochia","Drochia","48.0355","27.8129","Moldova","MD","MDA","Drochia","admin","","1498968635"
"Donduşeni","Donduseni","48.2394","27.6056","Moldova","MD","MDA","Donduşeni","admin","","1498280582"
"Briceni","Briceni","48.3629","27.0779","Moldova","MD","MDA","Briceni","admin","","1498970287"
"Ialoveni","Ialoveni","46.9435","28.7823","Moldova","MD","MDA","Ialoveni","admin","","1498897259"
"Bălți","Balti","47.7591","27.9053","Moldova","MD","MDA","Bălţi","admin","151355","1498172131"
"Criuleni","Criuleni","47.2131","29.1593","Moldova","MD","MDA","Criuleni","admin","","1498171854"
"Bender","Bender","46.8316","29.4777","Moldova","MD","MDA","Bender","admin","","1498257678"
"Anenii Noi","Anenii Noi","46.8784","29.2348","Moldova","MD","MDA","Anenii Noi","admin","","1498650298"
"Cahul","Cahul","45.9079","28.1944","Moldova","MD","MDA","Cahul","admin","63407","1498020356"
"Chișinău","Chisinau","47.0050","28.8577","Moldova","MD","MDA","Chişinău","primary","688134","1498011437"
"Straşeni","Straseni","47.1422","28.6077","Moldova","MD","MDA","Străşeni","admin","","1498773145"
"Tiraspol","Tiraspol","46.8531","29.6400","Moldova","MD","MDA","Stînga Nistrului","admin","157000","1498104958"
"Teleneşti","Telenesti","47.5011","28.3654","Moldova","MD","MDA","Teleneşti","admin","","1498811064"
"Taraclia","Taraclia","45.9027","28.6682","Moldova","MD","MDA","Taraclia","admin","","1498129687"
"Dubăsari","Dubasari","47.2631","29.1608","Moldova","MD","MDA","Stînga Nistrului","","23254","1498583082"
"Cocieri","Cocieri","47.3087","29.1101","Moldova","MD","MDA","Dubăsari","admin","","1498580757"
"Călăraşi","Calarasi","47.2556","28.3099","Moldova","MD","MDA","Călăraşi","admin","","1498598747"
"Glodeni","Glodeni","47.7751","27.5189","Moldova","MD","MDA","Glodeni","admin","","1498553213"
"Hînceşti","Hincesti","46.8305","28.5906","Moldova","MD","MDA","Hînceşti","admin","","1498402212"
"Nisporeni","Nisporeni","47.0816","28.1714","Moldova","MD","MDA","Nisporeni","admin","","1498953988"
"Soroca","Soroca","48.1566","28.2849","Moldova","MD","MDA","Soroca","admin","","1498912060"
"Ungheni","Ungheni","47.2108","27.8005","Moldova","MD","MDA","Ungheni","admin","","1498687533"
"Berane","Berane","42.8425","19.8733","Montenegro","ME","MNE","Berane","admin","","1499204492"
"Plav","Plav","42.5969","19.9456","Montenegro","ME","MNE","Plav","admin","","1499247875"
"Andrijevica","Andrijevica","42.7339","19.7919","Montenegro","ME","MNE","Andrijevica","admin","","1499379378"
"Petnjica","Petnjica","42.9089","19.9644","Montenegro","ME","MNE","Petnjica","admin","","1499532482"
"Gusinje","Gusinje","42.5619","19.8339","Montenegro","ME","MNE","Gusinje","admin","","1499342041"
"Kolašin","Kolasin","42.8242","19.5225","Montenegro","ME","MNE","Kolašin","admin","","1499083772"
"Podgorica","Podgorica","42.4660","19.2663","Montenegro","ME","MNE","Podgorica","primary","145850","1499454516"
"Bijelo Polje","Bijelo Polje","43.0292","19.7456","Montenegro","ME","MNE","Bijelo Polje","admin","","1499452756"
"Bar","Bar","42.0931","19.1003","Montenegro","ME","MNE","Bar","admin","","1499197266"
"Budva","Budva","42.2864","18.8400","Montenegro","ME","MNE","Budva","admin","","1499564238"
"Cetinje","Cetinje","42.3922","18.9225","Montenegro","ME","MNE","Cetinje","admin","","1499733751"
"Danilovgrad","Danilovgrad","42.5472","19.1053","Montenegro","ME","MNE","Danilovgrad","admin","","1499538261"
"Herceg-Novi","Herceg-Novi","42.4531","18.5375","Montenegro","ME","MNE","Herceg Novi","admin","","1499673791"
"Kotor","Kotor","42.4258","18.7719","Montenegro","ME","MNE","Kotor","admin","","1499573612"
"Mojkovac","Mojkovac","42.9639","19.5825","Montenegro","ME","MNE","Mojkovac","admin","","1499103009"
"Nikšić","Niksic","42.7750","18.9583","Montenegro","ME","MNE","Nikšić","admin","","1499844133"
"Plužine","Pluzine","43.1528","18.8394","Montenegro","ME","MNE","Plužine","admin","","1499719205"
"Pljevlja","Pljevlja","43.3522","19.3542","Montenegro","ME","MNE","Pljevlja","admin","","1499255431"
"Rožaje","Rozaje","42.8439","20.1683","Montenegro","ME","MNE","Rožaje","admin","","1499854307"
"Šavnik","Savnik","42.9564","19.0967","Montenegro","ME","MNE","Šavnik","admin","","1499140506"
"Tivat","Tivat","42.4364","18.6961","Montenegro","ME","MNE","Tivat","admin","","1499952005"
"Ulcinj","Ulcinj","41.9283","19.2064","Montenegro","ME","MNE","Ulcinj","admin","","1499867182"
"Žabljak","Zabljak","43.1547","19.1219","Montenegro","ME","MNE","Žabljak","admin","","1499125825"
"Marigot","Marigot","18.0706","-63.0847","Saint Martin","MF","MAF","","primary","","1663133172"
"Antananarivo","Antananarivo","-18.9166","47.5166","Madagascar","MG","MDG","Antananarivo","primary","1697000","1450978461"
"Toamasina","Toamasina","-18.1818","49.4050","Madagascar","MG","MDG","Toamasina","admin","210226","1450540529"
"Antalaha","Antalaha","-14.8833","50.2833","Madagascar","MG","MDG","Antsiranana","","47224","1450649394"
"Maroantsetra","Maroantsetra","-15.4333","49.7333","Madagascar","MG","MDG","Toamasina","","38046","1450485257"
"Mandritsara","Mandritsara","-15.8328","48.8166","Madagascar","MG","MDG","Mahajanga","","9705","1450981137"
"Besalampy","Besalampy","-16.7495","44.4833","Madagascar","MG","MDG","Mahajanga","","1022","1450740445"
"Marovoay","Marovoay","-16.0995","46.6333","Madagascar","MG","MDG","Mahajanga","","31253","1450283819"
"Andoany","Andoany","-13.4000","48.2666","Madagascar","MG","MDG","Antsiranana","","22680","1450689047"
"Mahajanga","Mahajanga","-15.6700","46.3450","Madagascar","MG","MDG","Mahajanga","admin","154657","1450421961"
"Ambanja","Ambanja","-13.6829","48.4500","Madagascar","MG","MDG","Antsiranana","","30621","1450987919"
"Antsiranana","Antsiranana","-12.2765","49.3115","Madagascar","MG","MDG","Antsiranana","admin","82937","1450106928"
"Miandrivazo","Miandrivazo","-19.5162","45.4666","Madagascar","MG","MDG","Toliara","","20631","1450332104"
"Mananjary","Mananjary","-21.2167","48.3333","Madagascar","MG","MDG","Fianarantsoa","","27686","1450681595"
"Morombe","Morombe","-21.7391","43.3657","Madagascar","MG","MDG","Toliara","","16727","1450018559"
"Toliara","Toliara","-23.3568","43.6900","Madagascar","MG","MDG","Toliara","admin","115319","1450593748"
"Manja","Manja","-21.4329","44.3333","Madagascar","MG","MDG","Toliara","","1536","1450949899"
"Fianarantsoa","Fianarantsoa","-21.4333","47.0833","Madagascar","MG","MDG","Fianarantsoa","admin","184184","1450070223"
"Androka","Androka","-25.0219","44.0749","Madagascar","MG","MDG","Toliara","","174","1450495720"
"Bekiy","Bekiy","-24.2162","45.3166","Madagascar","MG","MDG","Toliara","","4286","1450655091"
"Antsirabe","Antsirabe","-19.8500","47.0333","Madagascar","MG","MDG","Antananarivo","minor","307921","1450791699"
"Antsohihy","Antsohihy","-14.8661","47.9834","Madagascar","MG","MDG","Mahajanga","minor","21290","1450240411"
"Maintirano","Maintirano","-18.0666","44.0167","Madagascar","MG","MDG","Mahajanga","minor","5925","1450625023"
"Ambatondrazaka","Ambatondrazaka","-17.8329","48.4167","Madagascar","MG","MDG","Toamasina","minor","43134","1450068349"
"Farafangana","Farafangana","-22.8166","47.8332","Madagascar","MG","MDG","Fianarantsoa","minor","24764","1450306255"
"Ihosy","Ihosy","-22.3996","46.1167","Madagascar","MG","MDG","Fianarantsoa","minor","16990","1450600411"
"Morondava","Morondava","-20.2833","44.2833","Madagascar","MG","MDG","Toliara","minor","36803","1450721607"
"Tôlanaro","Tolanaro","-25.0268","46.9900","Madagascar","MG","MDG","Toliara","minor","16818","1450217836"
"Sambava","Sambava","-14.2662","50.1666","Madagascar","MG","MDG","Antsiranana","minor","43465","1450004590"
"Majuro","Majuro","7.1030","171.3800","Marshall Islands","MH","MHL","Majuro","primary","25400","1584000000"
"Vevčani","Vevcani","41.2406","20.5933","Macedonia","MK","MKD","Vevčani","admin","","1807108428"
"Kočani","Kocani","41.9164","22.4128","Macedonia","MK","MKD","Kočani","admin","","1807422302"
"Staro Nagoričane","Staro Nagoricane","42.1981","21.8286","Macedonia","MK","MKD","Staro Nagoričane","admin","","1807782793"
"Radoviš","Radovis","41.6383","22.4647","Macedonia","MK","MKD","Radoviš","admin","","1807341711"
"Sopište","Sopiste","41.9547","21.4275","Macedonia","MK","MKD","Sopište","admin","","1807691189"
"Petrovec","Petrovec","41.9389","21.6150","Macedonia","MK","MKD","Petrovec","admin","","1807236473"
"Bosilovo","Bosilovo","41.4406","22.7278","Macedonia","MK","MKD","Bosilovo","admin","","1807868218"
"Zrnovci","Zrnovci","41.8542","22.4444","Macedonia","MK","MKD","Zrnovci","admin","","1807046032"
"Gradsko","Gradsko","41.5775","21.9428","Macedonia","MK","MKD","Gradsko","admin","","1807080471"
"Lipkovo","Lipkovo","42.1564","21.5853","Macedonia","MK","MKD","Lipkovo","admin","","1807754347"
"Lozovo","Lozovo","41.7839","21.9056","Macedonia","MK","MKD","Lozovo","admin","","1807681577"
"Plasnica","Plasnica","41.4672","21.1231","Macedonia","MK","MKD","Plasnica","admin","","1807030257"
"Aračinovo","Aracinovo","42.0264","21.5619","Macedonia","MK","MKD","Aračinovo","admin","","1807619539"
"Studeničani","Studenicani","41.9158","21.5306","Macedonia","MK","MKD","Studeničani","admin","","1807047160"
"Resen","Resen","41.0893","21.0109","Macedonia","MK","MKD","Resen","admin","","1807384915"
"Bogovinje","Bogovinje","41.9236","20.9136","Macedonia","MK","MKD","Bogovinje","admin","","1807279534"
"Vinica","Vinica","41.8828","22.5092","Macedonia","MK","MKD","Vinica","admin","","1807665568"
"Belčišta","Belcista","41.3028","20.8303","Macedonia","MK","MKD","Debarca","admin","","1807953626"
"Mogila","Mogila","41.1083","21.3786","Macedonia","MK","MKD","Mogila","admin","","1807583335"
"Veles","Veles","41.7156","21.7756","Macedonia","MK","MKD","Veles","admin","","1807468155"
"Kavadarci","Kavadarci","41.4331","22.0119","Macedonia","MK","MKD","Kavadarci","admin","","1807183974"
"Kumanovo","Kumanovo","42.1322","21.7144","Macedonia","MK","MKD","Kumanovo","admin","","1807301219"
"Ohrid","Ohrid","41.1172","20.8019","Macedonia","MK","MKD","Ohrid","admin","","1807586875"
"Strumica","Strumica","41.4375","22.6433","Macedonia","MK","MKD","Strumica","admin","","1807799132"
"Makedonski Brod","Makedonski Brod","41.5136","21.2153","Macedonia","MK","MKD","Makedonski Brod","admin","","1807831162"
"Rostuša","Rostusa","41.6100","20.6000","Macedonia","MK","MKD","Mavrovo i Rostuša","admin","","1807907483"
"Struga","Struga","41.1780","20.6778","Macedonia","MK","MKD","Struga","admin","","1807746682"
"Čučer-Sandevo","Cucer-Sandevo","42.1020","21.3846","Macedonia","MK","MKD","Čučer-Sandevo","admin","","1807969277"
"Novo Selo","Novo Selo","41.4149","22.8816","Macedonia","MK","MKD","Novo Selo","admin","","1807743098"
"Zelenikovo","Zelenikovo","41.8841","21.5885","Macedonia","MK","MKD","Zelenikovo","admin","","1807765797"
"Star Dojran","Star Dojran","41.1865","22.7203","Macedonia","MK","MKD","Dojran","admin","","1807304153"
"Skopje","Skopje","42.0000","21.4335","Macedonia","MK","MKD","","primary","494087","1807600615"
"Štip","Stip","41.7423","22.1979","Macedonia","MK","MKD","Štip","admin","","1807614061"
"Makedonska Kamenica","Makedonska Kamenica","42.0208","22.5876","Macedonia","MK","MKD","Makedonska Kamenica","admin","","1807768534"
"Ilinden","Ilinden","41.9945","21.5800","Macedonia","MK","MKD","Ilinden","admin","","1807767601"
"Demir Hisar","Demir Hisar","41.2210","21.2030","Macedonia","MK","MKD","Demir Hisar","admin","","1807908017"
"Želino","Zelino","41.9825","21.0624","Macedonia","MK","MKD","Želino","admin","","1807040075"
"Prilep","Prilep","41.3451","21.5550","Macedonia","MK","MKD","Prilep","admin","","1807551778"
"Bitola","Bitola","41.0391","21.3395","Macedonia","MK","MKD","Bitola","admin","86528","1807488567"
"Krivogaštani","Krivogastani","41.3369","21.3311","Macedonia","MK","MKD","Krivogaštani","admin","","1807293579"
"Kruševo","Krusevo","41.3694","21.2483","Macedonia","MK","MKD","Kruševo","admin","","1807741715"
"Vasilevo","Vasilevo","41.4741","22.6430","Macedonia","MK","MKD","Vasilevo","admin","","1807855424"
"Gostivar","Gostivar","41.7960","20.9082","Macedonia","MK","MKD","Gostivar","admin","","1807901060"
"Vrapčište","Vrapciste","41.8344","20.8856","Macedonia","MK","MKD","Vrapčište","admin","","1807187187"
"Novaci","Novaci","41.0420","21.4587","Macedonia","MK","MKD","Novaci","admin","","1807936735"
"Čaška","Caska","41.6487","21.6922","Macedonia","MK","MKD","Čaška","admin","","1807720763"
"Kratovo","Kratovo","42.0784","22.1807","Macedonia","MK","MKD","Kratovo","admin","","1807262234"
"Probištip","Probistip","42.0019","22.1728","Macedonia","MK","MKD","Probištip","admin","","1807592969"
"Debar","Debar","41.5244","20.5242","Macedonia","MK","MKD","Debar","admin","","1807621851"
"Centar Župa","Centar Zupa","41.4788","20.5586","Macedonia","MK","MKD","Centar Župa","admin","","1807323094"
"Rosoman","Rosoman","41.5167","21.9458","Macedonia","MK","MKD","Rosoman","admin","","1807663389"
"Jegunovce","Jegunovce","42.0724","21.1237","Macedonia","MK","MKD","Jegunovce","admin","","1807040114"
"Demir Kapija","Demir Kapija","41.4061","22.2463","Macedonia","MK","MKD","Demir Kapija","admin","","1807182004"
"Negotino","Negotino","41.4846","22.0906","Macedonia","MK","MKD","Negotino","admin","","1807848381"
"Konče","Konce","41.4951","22.3836","Macedonia","MK","MKD","Konče","admin","","1807382770"
"Dolneni","Dolneni","41.4258","21.4540","Macedonia","MK","MKD","Dolneni","admin","","1807169470"
"Sveti Nikole","Sveti Nikole","41.8667","21.9411","Macedonia","MK","MKD","Sveti Nikole","admin","","1807880409"
"Valandovo","Valandovo","41.3174","22.5600","Macedonia","MK","MKD","Valandovo","admin","","1807423601"
"Kičevo","Kicevo","41.5127","20.9589","Macedonia","MK","MKD","Kičevo","admin","","1807895120"
"Delčevo","Delcevo","41.9654","22.7763","Macedonia","MK","MKD","Delčevo","admin","","1807161783"
"Tetovo","Tetovo","42.0092","20.9701","Macedonia","MK","MKD","Tetovo","admin","119132","1807020286"
"Češinovo","Cesinovo","41.8715","22.2896","Macedonia","MK","MKD","Češinovo-Obleševo","admin","","1807687666"
"Karbinci","Karbinci","41.8176","22.2353","Macedonia","MK","MKD","Karbinci","admin","","1807568669"
"Tearce","Tearce","42.0767","21.0531","Macedonia","MK","MKD","Tearce","admin","","1807139125"
"Kriva Palanka","Kriva Palanka","42.2009","22.3324","Macedonia","MK","MKD","Kriva Palanka","admin","","1807058849"
"Rankovce","Rankovce","42.1686","22.1166","Macedonia","MK","MKD","Rankovce","admin","","1807575395"
"Pehčevo","Pehcevo","41.7623","22.8892","Macedonia","MK","MKD","Pehčevo","admin","","1807666030"
"Gevgelija","Gevgelija","41.1417","22.5014","Macedonia","MK","MKD","Gevgelija","admin","","1807600399"
"Bogdanci","Bogdanci","41.2031","22.5756","Macedonia","MK","MKD","Bogdanci","admin","","1807565779"
"Berovo","Berovo","41.7031","22.8578","Macedonia","MK","MKD","Berovo","admin","","1807873177"
"Brvenica","Brvenica","41.9672","20.9808","Macedonia","MK","MKD","Brvenica","admin","","1807009322"
"Aguelhok","Aguelhok","19.4549","0.8564","Mali","ML","MLI","Kidal","","9000","1466967655"
"Bamako","Bamako","12.6500","-8.0000","Mali","ML","MLI","Bamako","primary","1494000","1466965925"
"Kidal","Kidal","18.4411","1.4078","Mali","ML","MLI","Kidal","admin","","1466444510"
"Bourem","Bourem","16.9004","-0.3500","Mali","ML","MLI","Gao","","30000","1466124401"
"Mopti","Mopti","14.4900","-4.1800","Mali","ML","MLI","Mopti","admin","108456","1466352252"
"Gao","Gao","16.2666","-0.0500","Mali","ML","MLI","Gao","admin","116967","1466571211"
"Satadougou","Satadougou","12.6170","-11.4066","Mali","ML","MLI","Kayes","","706","1466591334"
"Koulikoro","Koulikoro","12.8833","-7.5500","Mali","ML","MLI","Koulikoro","admin","23919","1466411645"
"Sikasso","Sikasso","11.3204","-5.6800","Mali","ML","MLI","Sikasso","admin","225753","1466666150"
"Araouane","Araouane","18.9000","-3.5300","Mali","ML","MLI","Tombouctou","","4026","1466354924"
"Ségou","Segou","13.4400","-6.2600","Mali","ML","MLI","Ségou","admin","122952","1466684950"
"Timbuktu","Timbuktu","16.7666","-3.0166","Mali","ML","MLI","Tombouctou","admin","68872","1466595315"
"Markala","Markala","13.6704","-6.0700","Mali","ML","MLI","Ségou","","53738","1466526342"
"Taoudenni","Taoudenni","22.6666","-3.9834","Mali","ML","MLI","Tombouctou","","3019","1466976172"
"Kayes","Kayes","14.4500","-11.4400","Mali","ML","MLI","Kayes","admin","77207","1466546429"
"Sokolo","Sokolo","14.7337","-6.1333","Mali","ML","MLI","Ségou","","4374","1466033359"
"Kita","Kita","13.0504","-9.4833","Mali","ML","MLI","Kayes","minor","46435","1466078415"
"Nara","Nara","15.1800","-7.2800","Mali","ML","MLI","Koulikoro","minor","18459","1466925477"
"Kati","Kati","12.7504","-8.0800","Mali","ML","MLI","Koulikoro","minor","66895","1466006801"
"Kangaba","Kangaba","11.9404","-8.4400","Mali","ML","MLI","Koulikoro","minor","17232","1466770326"
"San","San","13.3004","-4.9000","Mali","ML","MLI","Ségou","minor","41386","1466198810"
"Bougouni","Bougouni","11.4204","-7.4900","Mali","ML","MLI","Sikasso","minor","35450","1466902797"
"Koutiala","Koutiala","12.3904","-5.4700","Mali","ML","MLI","Sikasso","minor","104927","1466253368"
"Djenné","Djenne","13.9000","-4.5500","Mali","ML","MLI","Mopti","minor","32944","1466017388"
"Yélimané","Yelimane","15.1337","-10.5666","Mali","ML","MLI","Kayes","minor","988","1466380722"
"Bafoulabé","Bafoulabe","13.8004","-10.8200","Mali","ML","MLI","Kayes","minor","26823","1466740370"
"Nioro du Sahel","Nioro du Sahel","15.2304","-9.5900","Mali","ML","MLI","Kayes","minor","14421","1466532076"
"Goundam","Goundam","16.4170","-3.6666","Mali","ML","MLI","Tombouctou","minor","8456","1466655191"
"Ménaka","Menaka","15.9167","2.4000","Mali","ML","MLI","Gao","minor","9110","1466373205"
"Tessalit","Tessalit","20.2014","1.0888","Mali","ML","MLI","Kidal","minor","6000","1466140377"
"Banamba","Banamba","13.5504","-7.4500","Mali","ML","MLI","Koulikoro","minor","30591","1466760822"
"Rangoon","Rangoon","16.7834","96.1667","Burma","MM","MMR","Yangon","primary","4088000","1104616656"
"Allanmyo","Allanmyo","19.3783","95.2279","Burma","MM","MMR","Magway","","57897","1104582279"
"Mudon","Mudon","16.2618","97.7215","Burma","MM","MMR","Mon State","","152300","1104174785"
"Mawlamyine","Mawlamyine","16.5004","97.6700","Burma","MM","MMR","Mon State","admin","438861","1104530702"
"Phyarpon","Phyarpon","16.2933","95.6829","Burma","MM","MMR","Ayeyawady","","65601","1104170402"
"Labutta","Labutta","16.1619","94.7014","Burma","MM","MMR","Ayeyawady","","1667","1104103403"
"Dawei","Dawei","14.0980","98.1950","Burma","MM","MMR","Taninthayi","admin","146212","1104373474"
"Myeik","Myeik","12.4541","98.6115","Burma","MM","MMR","Taninthayi","","266720","1104715655"
"Ye","Ye","15.2533","97.8679","Burma","MM","MMR","Mon State","","50798","1104513802"
"Namtu","Namtu","23.0837","97.4000","Burma","MM","MMR","Shan State","","48591","1104043404"
"Hinthada","Hinthada","17.6483","95.4679","Burma","MM","MMR","Ayeyawady","","180728","1104524588"
"Thongwa","Thongwa","16.7547","96.5193","Burma","MM","MMR","Yangon","","52496","1104339441"
"Bago","Bago","17.3200","96.5150","Burma","MM","MMR","Bago","admin","284318","1104027443"
"Pathein","Pathein","16.7704","94.7500","Burma","MM","MMR","Ayeyawady","admin","237089","1104832430"
"Yandoon","Yandoon","17.0433","95.6429","Burma","MM","MMR","Ayeyawady","","36172","1104318813"
"Wakema","Wakema","16.6133","95.1829","Burma","MM","MMR","Ayeyawady","","48405","1104266529"
"Pyay","Pyay","18.8165","95.2114","Burma","MM","MMR","Bago","","135308","1104978348"
"Chauk","Chauk","20.9085","94.8230","Burma","MM","MMR","Magway","","90870","1104898616"
"Myitkyina","Myitkyina","25.3596","97.3928","Burma","MM","MMR","Kachin State","admin","139100","1104327329"
"Monywa","Monywa","22.1050","95.1500","Burma","MM","MMR","Sagaing","","226222","1104777345"
"Naypyidaw","Naypyidaw","19.7666","96.1186","Burma","MM","MMR","Nay Pyi Taw","primary","930000","1104838105"
"Loikaw","Loikaw","19.6650","97.2060","Burma","MM","MMR","Kayah State","admin","17293","1104542517"
"Yaynangyoung","Yaynangyoung","20.4615","94.8810","Burma","MM","MMR","Magway","","110553","1104118838"
"Kyaukphyu","Kyaukphyu","19.4290","93.5494","Burma","MM","MMR","Rakhine State","","4261","1104321745"
"Magway","Magway","20.1445","94.9196","Burma","MM","MMR","Magway","admin","125973","1104246517"
"Shwebo","Shwebo","22.5783","95.6929","Burma","MM","MMR","Sagaing","","88914","1104118052"
"Sagaing","Sagaing","21.8800","95.9620","Burma","MM","MMR","Sagaing","admin","78739","1104151403"
"Myingyan","Myingyan","21.4618","95.3914","Burma","MM","MMR","Mandalay","","163812","1104162015"
"Pakokku","Pakokku","21.3320","95.0866","Burma","MM","MMR","Magway","","126938","1104161315"
"Mandalay","Mandalay","21.9700","96.0850","Burma","MM","MMR","Mandalay","admin","1300000","1104468217"
"Taunggyi","Taunggyi","20.7820","97.0380","Burma","MM","MMR","Shan State","admin","160115","1104364374"
"Pyu","Pyu","18.4779","96.4379","Burma","MM","MMR","Bago","","40386","1104518645"
"Taungoo","Taungoo","18.9483","96.4179","Burma","MM","MMR","Bago","","106945","1104269989"
"Letpadan","Letpadan","17.7819","95.7415","Burma","MM","MMR","Bago","","176571","1104882792"
"Sittwe","Sittwe","20.1400","92.8800","Burma","MM","MMR","Rakhine State","admin","179032","1104269305"
"Pa-an","Pa-an","16.8500","97.6167","Burma","MM","MMR","Kayin State","admin","50000","1104494124"
"Hakha","Hakha","22.6500","93.6167","Burma","MM","MMR","Chin State","admin","20000","1104739581"
"Olgiy","Olgiy","48.9337","89.9500","Mongolia","MN","MNG","Bayan-Ölgiy","admin","34934","1496290857"
"Mandalgovi","Mandalgovi","45.7500","106.2660","Mongolia","MN","MNG","Dundgovĭ","admin","2984","1496666560"
"Ulaanbaatar","Ulaanbaatar","47.9167","106.9166","Mongolia","MN","MNG","Ulaanbaatar","primary","885000","1496024767"
"Mörön","Moron","49.6453","100.1544","Mongolia","MN","MNG","Hövsgöl","admin","27690","1496482400"
"Darhan","Darhan","49.6167","106.3500","Mongolia","MN","MNG","Selenge","","74738","1496510995"
"Erdenet","Erdenet","49.0533","104.1183","Mongolia","MN","MNG","Orhon","admin","79647","1496374417"
"Uliastay","Uliastay","47.7500","96.8167","Mongolia","MN","MNG","Dzavhan","admin","8056","1496103841"
"Choyr","Choyr","46.3611","108.3611","Mongolia","MN","MNG","Govĭsümber","admin","","1496514583"
"Altay","Altay","46.3722","96.2583","Mongolia","MN","MNG","Govĭ-Altay","admin","","1496574715"
"Buyant-Uhaa","Buyant-Uhaa","44.8666","110.1500","Mongolia","MN","MNG","Dornogovĭ","admin","8776","1496862229"
"Choybalsan","Choybalsan","48.0666","114.5060","Mongolia","MN","MNG","Dornod","admin","33376","1496921469"
"Ulaangom","Ulaangom","49.9833","92.0666","Mongolia","MN","MNG","Uvs","admin","35796","1496088351"
"Bulgan","Bulgan","48.8106","103.5317","Mongolia","MN","MNG","Bulgan","admin","17348","1496317433"
"Arvayheer","Arvayheer","46.2500","102.7666","Mongolia","MN","MNG","Övörhangay","admin","28053","1496580180"
"Tsetserleg","Tsetserleg","47.4769","101.4502","Mongolia","MN","MNG","Arhangay","admin","19812","1496397451"
"Bayankhongor","Bayankhongor","46.3000","100.9833","Mongolia","MN","MNG","Bayanhongor","admin","26252","1496815184"
"Darhan","Darhan","49.4867","105.9228","Mongolia","MN","MNG","Darhan-Uul","admin","","1496235602"
"Dzuunharaa","Dzuunharaa","48.8666","106.4666","Mongolia","MN","MNG","Selenge","","18830","1496200032"
"Dzuunmod","Dzuunmod","47.7110","106.9470","Mongolia","MN","MNG","Töv","admin","17738","1496245822"
"Ondorhaan","Ondorhaan","47.3167","110.6500","Mongolia","MN","MNG","Hentiy","admin","14723","1496719699"
"Dalandzadgad","Dalandzadgad","43.5708","104.4250","Mongolia","MN","MNG","Ömnögovĭ","admin","","1496141284"
"Ulaan-Uul","Ulaan-Uul","44.3337","111.2333","Mongolia","MN","MNG","Dornogovĭ","minor","3726","1496264968"
"Hodrogo","Hodrogo","48.9664","96.7833","Mongolia","MN","MNG","Dzavhan","minor","10","1496403046"
"Baruun Urt","Baruun Urt","46.7000","113.2833","Mongolia","MN","MNG","Sühbaatar","admin","15805","1496627655"
"Suchboatar","Suchboatar","50.2500","106.2000","Mongolia","MN","MNG","Selenge","admin","24235","1496145017"
"Dund-Us","Dund-Us","48.0166","91.6333","Mongolia","MN","MNG","Hovd","admin","30500","1496382421"
"Dalandzadgad","Dalandzadgad","43.5836","104.4403","Mongolia","MN","MNG","Ömnögovĭ","minor","15093","1496544358"
"Macau","Macau","22.2030","113.5450","Macau","MO","MAC","","","568700","1446227359"
"Fort-de-France","Fort-de-France","14.6104","-61.0800","Martinique","MQ","MTQ","","admin","253995","1474969110"
"Bogue","Bogue","16.5904","-14.2700","Mauritania","MR","MRT","Brakna","","10415","1478095096"
"Chegga","Chegga","25.3804","-5.7800","Mauritania","MR","MRT","Tiris Zemmour","","10","1478632134"
"Boutilimit","Boutilimit","17.5504","-14.7000","Mauritania","MR","MRT","Trarza","","14142","1478235368"
"Timbedra","Timbedra","16.2504","-8.1666","Mauritania","MR","MRT","Hodh ech Chargui","","245","1478847634"
"Bir Mogrein","Bir Mogrein","25.2333","-11.5833","Mauritania","MR","MRT","Tiris Zemmour","","10","1478537499"
"Fderik","Fderik","22.6790","-12.7070","Mauritania","MR","MRT","Tiris Zemmour","","5760","1478557883"
"Sélibaby","Selibaby","15.1670","-12.1833","Mauritania","MR","MRT","Guidimaka","admin","460","1478575433"
"Aleg","Aleg","17.0580","-13.9090","Mauritania","MR","MRT","Brakna","admin","8388","1478173139"
"Akjoujt","Akjoujt","19.7470","-14.3910","Mauritania","MR","MRT","Inchiri","admin","370","1478247793"
"Kiffa","Kiffa","16.6200","-11.4000","Mauritania","MR","MRT","Assaba","admin","73930","1478465771"
"Nema","Nema","16.6171","-7.2500","Mauritania","MR","MRT","Hodh ech Chargui","admin","200000","1478009046"
"Nouadhibou","Nouadhibou","20.9000","-17.0560","Mauritania","MR","MRT","Dakhlet Nouadhibou","admin","86738","1478176283"
"Rosso","Rosso","16.5240","-15.8127","Mauritania","MR","MRT","Trarza","admin","47203","1478524903"
"Tidjikdja","Tidjikdja","18.5500","-11.4166","Mauritania","MR","MRT","Tagant","admin","19981","1478594780"
"Atar","Atar","20.5166","-13.0500","Mauritania","MR","MRT","Adrar","admin","44265","1478064510"
"Kaédi","Kaedi","16.1503","-13.5037","Mauritania","MR","MRT","Gorgol","admin","","1478607377"
"Zouirat","Zouirat","22.7304","-12.4833","Mauritania","MR","MRT","Tiris Zemmour","admin","56345","1478799785"
"Arafat","Arafat","18.0583","-15.9621","Mauritania","MR","MRT","Nouakchott Sud","admin","","1478174698"
"Dar Naim","Dar Naim","18.0973","-15.9327","Mauritania","MR","MRT","Nouakchott Nord","admin","","1478696248"
"Tevragh Zeina","Tevragh Zeina","18.0989","-15.9885","Mauritania","MR","MRT","Nouakchott Ouest","admin","","1478902195"
"Nouakchott","Nouakchott","18.0864","-15.9753","Mauritania","MR","MRT","","primary","742144","1478414984"
"Ayoun el Atrous","Ayoun el Atrous","16.6666","-9.6167","Mauritania","MR","MRT","Hodh el Gharbi","admin","1423","1478255260"
"Plymouth","Plymouth","16.7000","-62.2167","Montserrat","MS","MSR","Saint Anthony","primary","","1500711935"
"Birżebbuġa","Birzebbuga","35.8258","14.5269","Malta","MT","MLT","Birżebbuġa","admin","","1470830646"
"Marsaskala","Marsaskala","35.8669","14.5619","Malta","MT","MLT","Marsaskala","admin","","1470808916"
"Marsaxlokk","Marsaxlokk","35.8419","14.5431","Malta","MT","MLT","Marsaxlokk","admin","","1470596833"
"Kirkop","Kirkop","35.8422","14.4853","Malta","MT","MLT","Kirkop","admin","","1470075119"
"Pietà","Pieta","35.8947","14.4950","Malta","MT","MLT","Pietà","admin","","1470444069"
"Żejtun","Zejtun","35.8558","14.5331","Malta","MT","MLT","Żejtun","admin","","1470320205"
"Attard","Attard","35.8897","14.4425","Malta","MT","MLT","Attard","admin","","1470765022"
"Pembroke","Pembroke","35.9306","14.4764","Malta","MT","MLT","Pembroke","admin","","1470802229"
"Żebbuġ","Zebbug","35.8719","14.4411","Malta","MT","MLT","Żebbuġ","admin","","1470473600"
"Ta’ Xbiex","Ta' Xbiex","35.8992","14.4944","Malta","MT","MLT","Ta’ Xbiex","admin","","1470129537"
"Sliema","Sliema","35.9125","14.5019","Malta","MT","MLT","Sliema","admin","","1470229986"
"San Lawrenz","San Lawrenz","36.0556","14.2036","Malta","MT","MLT","San Lawrenz","admin","","1470602161"
"Imqabba","Imqabba","35.8461","14.4672","Malta","MT","MLT","Imqabba","admin","","1470934982"
"Imdina","Imdina","35.8869","14.4025","Malta","MT","MLT","Imdina","admin","","1470959100"
"Qala","Qala","36.0361","14.3094","Malta","MT","MLT","Qala","admin","","1470520722"
"Imtarfa","Imtarfa","35.8933","14.3989","Malta","MT","MLT","Imtarfa","admin","","1470946814"
"Żurrieq","Zurrieq","35.8311","14.4742","Malta","MT","MLT","Żurrieq","admin","","1470331348"
"Gudja","Gudja","35.8492","14.5031","Malta","MT","MLT","Gudja","admin","","1470798142"
"Sannat","Sannat","36.0244","14.2428","Malta","MT","MLT","Sannat","admin","","1470546177"
"Valletta","Valletta","35.8997","14.5147","Malta","MT","MLT","Valletta","primary","368250","1470574399"
"Żabbar","Zabbar","35.8761","14.5350","Malta","MT","MLT","Żabbar","admin","","1470317969"
"Luqa","Luqa","35.8589","14.4886","Malta","MT","MLT","Luqa","admin","","1470901810"
"Qormi","Qormi","35.8783","14.4719","Malta","MT","MLT","Qormi","admin","","1470879234"
"Imġarr","Imgarr","35.9206","14.3664","Malta","MT","MLT","Imġarr","admin","","1470038163"
"Saint Paul’s Bay","Saint Paul's Bay","35.9483","14.4006","Malta","MT","MLT","San Pawl il-Baħar","admin","","1470879974"
"Qrendi","Qrendi","35.8347","14.4583","Malta","MT","MLT","Qrendi","admin","","1470797535"
"Munxar","Munxar","36.0300","14.2333","Malta","MT","MLT","Munxar","admin","","1470116785"
"Ħamrun","Hamrun","35.8847","14.4844","Malta","MT","MLT","Ħamrun","admin","","1470141385"
"Naxxar","Naxxar","35.9136","14.4436","Malta","MT","MLT","Naxxar","admin","","1470470220"
"Għaxaq","Ghaxaq","35.8489","14.5167","Malta","MT","MLT","Għaxaq","admin","","1470648445"
"Għasri","Ghasri","36.0578","14.2264","Malta","MT","MLT","Għasri","admin","","1470127050"
"Victoria","Victoria","36.0444","14.2397","Malta","MT","MLT","Rabat (Ghawdex)","admin","","1470128499"
"Iklin","Iklin","35.9092","14.4522","Malta","MT","MLT","Iklin","admin","","1470330332"
"Għargħur","Gharghur","35.9242","14.4519","Malta","MT","MLT","Għargħur","admin","","1470917815"
"Dingli","Dingli","35.8614","14.3822","Malta","MT","MLT","Dingli","admin","","1470281352"
"Siġġiewi","Siggiewi","35.8556","14.4364","Malta","MT","MLT","Siġġiewi","admin","","1470181462"
"Xewkija","Xewkija","36.0328","14.2581","Malta","MT","MLT","Xewkija","admin","","1470040289"
"Lija","Lija","35.9006","14.4464","Malta","MT","MLT","Lija","admin","","1470862409"
"Safi","Safi","35.8331","14.4847","Malta","MT","MLT","Safi","admin","","1470417421"
"Senglea","Senglea","35.8875","14.5169","Malta","MT","MLT","Isla","admin","","1470598185"
"Xagħra","Xaghra","36.0500","14.2644","Malta","MT","MLT","Xagħra","admin","","1470781874"
"Xgħajra","Xghajra","35.8856","14.5475","Malta","MT","MLT","Xgħajra","admin","","1470535936"
"Żebbuġ","Zebbug","36.0722","14.2358","Malta","MT","MLT","Żebbuġ (Ghawdex)","admin","","1470804129"
"Gżira","Gzira","35.9058","14.4881","Malta","MT","MLT","Gżira","admin","","1470739045"
"Imsida","Imsida","35.8925","14.4828","Malta","MT","MLT","Imsida","admin","","1470395922"
"Kalkara","Kalkara","35.8892","14.5328","Malta","MT","MLT","Kalkara","admin","","1470563392"
"Kerċem","Kercem","36.0419","14.2267","Malta","MT","MLT","Kerċem","admin","","1470847062"
"Mellieħa","Mellieha","35.9564","14.3622","Malta","MT","MLT","Mellieħa","admin","","1470660015"
"Mosta","Mosta","35.9092","14.4256","Malta","MT","MLT","Mosta","admin","","1470176983"
"Nadur","Nadur","36.0378","14.2942","Malta","MT","MLT","Nadur","admin","","1470985739"
"Paola","Paola","35.8731","14.4989","Malta","MT","MLT","Paola","admin","","1470416994"
"Rabat","Rabat","35.8822","14.3981","Malta","MT","MLT","Rabat","admin","","1470262687"
"Marsa","Marsa","35.8792","14.4953","Malta","MT","MLT","Marsa","admin","","1470720892"
"San Ġiljan","San Giljan","35.9197","14.4844","Malta","MT","MLT","San Ġiljan","admin","","1470707733"
"San Ġwann","San Gwann","35.9056","14.4761","Malta","MT","MLT","San Ġwann","admin","","1470073144"
"Santa Luċija","Santa Lucija","36.0431","14.2172","Malta","MT","MLT","Santa Luċija","admin","","1470880833"
"Santa Venera","Santa Venera","35.8908","14.4742","Malta","MT","MLT","Santa Venera","admin","","1470983296"
"Swieqi","Swieqi","35.9225","14.4800","Malta","MT","MLT","Swieqi","admin","","1470279940"
"Tarxien","Tarxien","35.8658","14.5150","Malta","MT","MLT","Tarxien","admin","","1470230507"
"Balzan","Balzan","35.9003","14.4550","Malta","MT","MLT","Balzan","admin","","1470875655"
"Vittoriosa","Vittoriosa","35.8922","14.5183","Malta","MT","MLT","Birgu","admin","","1470805169"
"Birkirkara","Birkirkara","35.8972","14.4611","Malta","MT","MLT","Birkirkara","admin","","1470754290"
"Cospicua","Cospicua","35.8856","14.5275","Malta","MT","MLT","Bormla","admin","","1470541461"
"Fgura","Fgura","35.8703","14.5133","Malta","MT","MLT","Fgura","admin","","1470252842"
"Floriana","Floriana","35.8958","14.5083","Malta","MT","MLT","Floriana","admin","","1470089344"
"Fontana","Fontana","36.0375","14.2361","Malta","MT","MLT","Fontana","admin","","1470427419"
"Għajnsielem","Ghajnsielem","36.0264","14.2850","Malta","MT","MLT","Għajnsielem","admin","","1470050658"
"Għarb","Gharb","36.0600","14.2089","Malta","MT","MLT","Għarb","admin","","1470113453"
"Port Louis","Port Louis","-20.1666","57.5000","Mauritius","MU","MUS","Port Louis","primary","595491","1480131261"
"Curepipe","Curepipe","-20.3162","57.5166","Mauritius","MU","MUS","Plaines Wilhems","","299975","1480343099"
"Malé","Male","4.1667","73.4999","Maldives","MV","MDV","Maale","primary","112927","1462441685"
"Eydhafushi","Eydhafushi","5.1038","73.0699","Maldives","MV","MDV","","admin","","1462623341"
"Felidhoo","Felidhoo","3.4718","73.5470","Maldives","MV","MDV","","admin","","1462456773"
"Funadhoo","Funadhoo","6.1509","73.2901","Maldives","MV","MDV","","admin","","1462657112"
"Hithadhoo","Hithadhoo","-0.6000","73.0833","Maldives","MV","MDV","","admin","","1462406280"
"Kudahuvadhoo","Kudahuvadhoo","2.6717","72.8936","Maldives","MV","MDV","","admin","","1462282241"
"Kulhudhuffushi","Kulhudhuffushi","6.6223","73.0702","Maldives","MV","MDV","","admin","","1462969197"
"Mahibadhoo","Mahibadhoo","3.7571","72.9689","Maldives","MV","MDV","","admin","","1462235059"
"Manadhoo","Manadhoo","5.7669","73.4136","Maldives","MV","MDV","","admin","","1462220750"
"Muli","Muli","2.9217","73.5811","Maldives","MV","MDV","","admin","","1462436531"
"Naifaru","Naifaru","5.4442","73.3662","Maldives","MV","MDV","","admin","","1462186620"
"Thinadhoo","Thinadhoo","0.5303","72.9967","Maldives","MV","MDV","","admin","","1462781201"
"Un’goofaaru","Un'goofaaru","5.6681","73.0302","Maldives","MV","MDV","","admin","","1462941721"
"Veymandoo","Veymandoo","2.1878","73.0950","Maldives","MV","MDV","","admin","","1462464790"
"Fonadhoo","Fonadhoo","1.8342","73.5031","Maldives","MV","MDV","","admin","","1462000001"
"Rasdhoo","Rasdhoo","4.2631","72.9919","Maldives","MV","MDV","","admin","","1462000003"
"Thulusdhoo","Thulusdhoo","4.3742","73.6517","Maldives","MV","MDV","","admin","","1462000004"
